Signal to Noise Ratio, Received Signal Strength Indication, Sample Number, Internal Temperature, Barometric Pressure, External Temperature, Humidity, Time, GPS Fix (No of Satellites), Longitude, Latitude, Altitude, Heading, Pitch, Roll, Agricultural Viability, Pressure (Atms), Altitude from Pressure Sensor, Dew Point, Ground Barometric Pressure, Ground Temperature
13,-90,1,19.70,1017.70,124.98,99.99,0,0,0,0,0.00,0.00,0,216,3,254,-8.8764562607,1.0043916702,-51.0708847046,124.9768371582,1017.82,20.32,0.0000000000,0.0000000000,0.0000000000
13,-91,3,19.72,1017.70,124.98,99.99,0,0,0,0,0.00,0.00,0,90,3,255,-8.8764562607,1.0043916702,-51.0708847046,124.9768371582,1017.86,20.33,0.0000000000,0.0000000000,0.0000000000
13,-90,6,19.71,1017.80,124.98,99.99,0,0,0,0,0.00,0.00,0,88,2,254,-8.8764486313,1.0044903755,-52.2166213989,124.9768371582,1017.89,20.43,0.0000000000,0.0000000000,0.0000000000
13,-91,8,19.70,1017.70,124.98,99.99,0,0,0,0,0.00,0.00,0,80,2,254,-8.8764562607,1.0043916702,-51.0708847046,124.9768371582,1017.84,20.43,0.0000000000,0.0000000000,0.0000000000
15,-26,10,19.70,1017.70,124.98,99.99,0,0,0,0,0.00,0.00,0,89,3,254,-8.8764562607,1.0043916702,-51.0708847046,124.9768371582,1017.85,20.52,0.0000000000,0.0000000000,0.0000000000
14,-91,12,19.71,1017.70,124.98,99.99,0,0,0,0,0.00,0.00,0,75,3,255,-8.8764562607,1.0043916702,-51.0708847046,124.9768371582,1017.82,20.52,0.0000000000,0.0000000000,0.0000000000
13,-91,14,19.72,1017.70,124.98,99.99,0,0,0,0,0.00,0.00,0,82,3,254,-8.8764562607,1.0043916702,-51.0708847046,124.9768371582,1017.84,20.53,0.0000000000,0.0000000000,0.0000000000
13,-94,16,19.73,1017.70,124.98,99.99,0,0,0,0,0.00,0.00,0,75,3,255,-8.8764562607,1.0043916702,-51.0708847046,124.9768371582,1017.87,20.64,0.0000000000,0.0000000000,0.0000000000
14,-91,18,19.74,1017.70,124.98,99.99,0,0,0,0,0.00,0.00,0,78,2,254,-8.8764562607,1.0043916702,-51.0708847046,124.9768371582,1017.85,20.64,0.0000000000,0.0000000000,0.0000000000
13,-90,20,19.76,1017.70,124.98,99.99,0,0,0,0,0.00,0.00,0,83,3,255,-8.8764562607,1.0043916702,-51.0708847046,124.9768371582,1017.89,20.65,0.0000000000,0.0000000000,0.0000000000
13,-91,22,19.78,1017.70,124.98,99.99,0,0,0,0,0.00,0.00,0,88,3,255,-8.8764562607,1.0043916702,-51.0708847046,124.9768371582,1017.88,20.74,0.0000000000,0.0000000000,0.0000000000
15,-88,24,19.80,1017.70,124.98,99.99,0,0,0,0,0.00,0.00,0,83,2,254,-8.8764562607,1.0043916702,-51.0708847046,124.9768371582,1017.80,20.72,0.0000000000,0.0000000000,0.0000000000
14,-90,26,19.83,1017.70,124.98,99.99,0,0,0,0,0.00,0.00,0,81,3,254,-8.8764562607,1.0043916702,-51.0708847046,124.9768371582,1017.89,20.73,0.0000000000,0.0000000000,0.0000000000
13,-90,28,19.87,1017.70,124.98,99.99,0,0,0,0,0.00,0.00,0,91,3,253,-8.8764562607,1.0043916702,-51.0708847046,124.9768371582,1017.88,20.82,0.0000000000,0.0000000000,0.0000000000
14,-90,30,19.91,1017.70,124.98,99.99,0,0,0,0,0.00,0.00,0,79,3,0,-8.8764562607,1.0043916702,-51.0708847046,124.9768371582,1017.83,20.81,0.0000000000,0.0000000000,0.0000000000
14,-91,32,20.02,1017.70,124.98,99.99,0,0,0,0,0.00,0.00,0,84,2,254,-8.8764562607,1.0043916702,-51.0708847046,124.9768371582,1017.85,20.82,0.0000000000,0.0000000000,0.0000000000
14,-90,34,20.07,1017.70,124.98,99.99,0,0,0,0,0.00,0.00,0,81,2,254,-8.8764562607,1.0043916702,-51.0708847046,124.9768371582,1017.87,20.90,0.0000000000,0.0000000000,0.0000000000
13,-90,36,20.10,1017.70,124.98,99.99,0,0,0,0,0.00,0.00,0,76,3,254,-8.8764562607,1.0043916702,-51.0708847046,124.9768371582,1017.86,20.87,0.0000000000,0.0000000000,0.0000000000
14,-92,38,20.16,1017.70,124.98,99.99,0,0,0,0,0.00,0.00,0,79,3,255,-8.8764562607,1.0043916702,-51.0708847046,124.9768371582,1017.81,20.87,0.0000000000,0.0000000000,0.0000000000
13,-91,40,20.21,1017.70,124.98,99.99,0,0,0,0,0.00,0.00,0,81,3,255,-8.8764562607,1.0043916702,-51.0708847046,124.9768371582,1017.84,20.95,0.0000000000,0.0000000000,0.0000000000
14,-91,42,20.26,1017.70,124.98,99.99,0,0,0,0,0.00,0.00,0,80,3,255,-8.8764562607,1.0043916702,-51.0708847046,124.9768371582,1017.86,20.92,0.0000000000,0.0000000000,0.0000000000
14,-90,44,20.31,1017.70,124.98,99.99,0,0,0,0,0.00,0.00,0,93,2,254,-8.8764562607,1.0043916702,-51.0708847046,124.9768371582,1017.85,20.91,0.0000000000,0.0000000000,0.0000000000
13,-91,46,20.35,1017.70,124.98,99.99,0,0,0,0,0.00,0.00,0,94,2,255,-8.8764562607,1.0043916702,-51.0708847046,124.9768371582,1017.87,21.00,0.0000000000,0.0000000000,0.0000000000
14,-89,48,20.41,1017.70,124.98,99.99,0,0,0,0,0.00,0.00,0,88,2,255,-8.8764562607,1.0043916702,-51.0708847046,124.9768371582,1017.85,20.97,0.0000000000,0.0000000000,0.0000000000
13,-90,50,20.44,1017.70,124.98,99.99,0,0,0,0,0.00,0.00,0,84,2,255,-8.8764562607,1.0043916702,-51.0708847046,124.9768371582,1017.85,20.98,0.0000000000,0.0000000000,0.0000000000
14,-91,52,20.51,1017.80,124.98,99.99,0,0,0,0,0.00,0.00,0,79,2,255,-8.8764486313,1.0044903755,-52.2166213989,124.9768371582,1017.86,21.08,0.0000000000,0.0000000000,0.0000000000
14,-89,54,20.57,1017.70,124.98,99.99,0,0,0,0,0.00,0.00,0,100,2,255,-8.8764562607,1.0043916702,-51.0708847046,124.9768371582,1017.87,21.07,0.0000000000,0.0000000000,0.0000000000
14,-88,56,20.62,1017.70,124.98,99.99,0,0,0,0,0.00,0.00,0,4,2,255,-8.8764562607,1.0043916702,-51.0708847046,124.9768371582,1017.82,21.07,0.0000000000,0.0000000000,0.0000000000
14,-90,58,20.68,1017.70,124.98,99.99,0,0,0,0,0.00,0.00,0,88,2,254,-8.8764562607,1.0043916702,-51.0708847046,124.9768371582,1017.86,21.16,0.0000000000,0.0000000000,0.0000000000
14,-91,60,20.72,1017.70,124.98,99.99,0,0,0,0,0.00,0.00,0,90,2,254,-8.8764562607,1.0043916702,-51.0708847046,124.9768371582,1017.86,21.13,0.0000000000,0.0000000000,0.0000000000
14,-91,62,20.76,1017.80,124.98,99.99,0,0,0,0,0.00,0.00,0,86,2,255,-8.8764486313,1.0044903755,-52.2166213989,124.9768371582,1017.88,21.15,0.0000000000,0.0000000000,0.0000000000
13,-90,64,20.82,1017.70,124.98,99.99,0,0,0,0,0.00,0.00,0,92,2,255,-8.8764562607,1.0043916702,-51.0708847046,124.9768371582,1017.83,21.25,0.0000000000,0.0000000000,0.0000000000
13,-90,66,20.87,1017.70,124.98,99.99,0,0,0,0,0.00,0.00,0,87,2,254,-8.8764562607,1.0043916702,-51.0708847046,124.9768371582,1017.85,21.23,0.0000000000,0.0000000000,0.0000000000
14,-90,68,20.90,1017.70,124.98,99.99,0,0,0,0,0.00,0.00,0,82,3,254,-8.8764562607,1.0043916702,-51.0708847046,124.9768371582,1017.87,21.24,0.0000000000,0.0000000000,0.0000000000
14,-91,70,20.90,1017.70,124.98,99.99,0,0,0,0,0.00,0.00,0,84,4,253,-8.8764562607,1.0043916702,-51.0708847046,124.9768371582,1017.88,21.34,0.0000000000,0.0000000000,0.0000000000
14,-91,72,20.99,1017.80,24.84,7.69,0,0,0,0,0.00,0.00,0,159,1,0,0.1471735686,1.0044903755,-39.0778388977,-12.1694402695,1017.89,21.34,0.0000000000,0.0000000000,0.0000000000
14,-90,74,21.07,1017.70,124.98,99.99,0,0,0,0,0.00,0.00,0,159,3,0,-8.8764562607,1.0043916702,-51.0708847046,124.9768371582,1017.92,21.36,0.0000000000,0.0000000000,0.0000000000
13,-91,76,21.17,1017.80,25.50,35.39,0,0,0,0,0.00,0.00,0,167,2,255,0.5811945796,1.0044903755,-39.1644325256,9.0959730148,1017.87,21.45,0.0000000000,0.0000000000,0.0000000000
13,-91,78,21.25,1017.70,25.65,35.24,0,0,0,0,0.00,0.00,0,164,3,0,0.5795145035,1.0043916702,-38.3243370056,9.1651973724,1017.85,21.43,0.0000000000,0.0000000000,0.0000000000
13,-90,80,21.33,1017.80,25.73,31.72,0,0,0,0,0.00,0.00,0,162,2,255,0.5328877568,1.0044903755,-39.1946105957,7.6830253601,1017.87,21.43,0.0000000000,0.0000000000,0.0000000000
13,-92,82,21.43,1017.80,25.83,35.39,0,0,0,0,0.00,0.00,0,161,2,255,0.5817226171,1.0044903755,-39.2077293396,9.3869333267,1017.88,21.53,0.0000000000,0.0000000000,0.0000000000
14,-90,1,21.71,1017.80,124.98,99.99,0,0,0,0,0.00,0.00,0,154,2,255,-8.8764486313,1.0044903755,-52.2166213989,124.9768371582,1017.87,21.70,0.0000000000,0.0000000000,0.0000000000
14,-89,3,21.77,1017.70,124.98,99.99,0,0,0,0,0.00,0.00,0,157,2,255,-8.8764562607,1.0043916702,-51.0708847046,124.9768371582,1017.88,21.79,0.0000000000,0.0000000000,0.0000000000
13,-90,5,21.76,1017.70,124.98,99.99,0,0,0,0,0.00,0.00,0,157,2,255,-8.8764562607,1.0043916702,-51.0708847046,124.9768371582,1017.86,21.77,0.0000000000,0.0000000000,0.0000000000
14,-91,7,21.77,1017.70,124.98,99.99,0,0,0,0,0.00,0.00,0,154,2,255,-8.8764562607,1.0043916702,-51.0708847046,124.9768371582,1017.88,21.77,0.0000000000,0.0000000000,0.0000000000
13,-90,9,21.80,1017.80,124.98,99.99,0,0,0,0,0.00,0.00,0,154,2,255,-8.8764486313,1.0044903755,-52.2166213989,124.9768371582,1017.88,21.87,0.0000000000,0.0000000000,0.0000000000
13,-90,11,21.82,1017.70,124.98,99.99,0,0,0,0,0.00,0.00,0,160,2,255,-8.8764562607,1.0043916702,-51.0708847046,124.9768371582,1017.91,21.85,0.0000000000,0.0000000000,0.0000000000
14,-88,13,21.85,1017.70,124.98,99.99,0,0,0,0,0.00,0.00,0,154,2,255,-8.8764562607,1.0043916702,-51.0708847046,124.9768371582,1017.83,21.85,0.0000000000,0.0000000000,0.0000000000
13,-91,15,21.88,1017.70,124.98,99.99,0,0,0,0,0.00,0.00,0,155,2,255,-8.8764562607,1.0043916702,-51.0708847046,124.9768371582,1017.89,21.92,0.0000000000,0.0000000000,0.0000000000
14,-92,17,21.93,1017.70,124.98,99.99,0,0,0,0,0.00,0.00,0,160,2,255,-8.8764562607,1.0043916702,-51.0708847046,124.9768371582,1017.87,21.87,0.0000000000,0.0000000000,0.0000000000
13,-90,19,21.96,1017.70,124.98,99.99,0,0,0,0,0.00,0.00,0,159,2,255,-8.8764562607,1.0043916702,-51.0708847046,124.9768371582,1017.87,21.90,0.0000000000,0.0000000000,0.0000000000
13,-91,21,21.99,1017.70,124.98,99.99,0,0,0,0,0.00,0.00,0,158,2,255,-8.8764562607,1.0043916702,-51.0708847046,124.9768371582,1017.84,21.96,0.0000000000,0.0000000000,0.0000000000
14,-91,23,22.01,1017.70,124.98,99.99,0,0,0,0,0.00,0.00,0,161,2,255,-8.8764562607,1.0043916702,-51.0708847046,124.9768371582,1017.85,21.93,0.0000000000,0.0000000000,0.0000000000
14,-89,25,22.02,1017.80,124.98,99.99,0,0,0,0,0.00,0.00,0,160,3,255,-8.8764486313,1.0044903755,-52.2166213989,124.9768371582,1017.87,21.94,0.0000000000,0.0000000000,0.0000000000
14,-92,27,22.05,1017.70,124.98,99.99,0,0,0,0,0.00,0.00,0,164,2,255,-8.8764562607,1.0043916702,-51.0708847046,124.9768371582,1017.90,22.02,0.0000000000,0.0000000000,0.0000000000
14,-91,29,22.11,1017.70,124.98,99.99,0,0,0,0,0.00,0.00,0,164,2,255,-8.8764562607,1.0043916702,-51.0708847046,124.9768371582,1017.87,21.99,0.0000000000,0.0000000000,0.0000000000
14,-91,31,22.16,1017.70,124.98,99.99,0,0,0,0,0.00,0.00,0,168,2,255,-8.8764562607,1.0043916702,-51.0708847046,124.9768371582,1017.88,22.00,0.0000000000,0.0000000000,0.0000000000
14,-92,33,22.20,1017.70,124.98,99.99,0,0,0,0,0.00,0.00,0,161,2,255,-8.8764562607,1.0043916702,-51.0708847046,124.9768371582,1017.91,22.05,0.0000000000,0.0000000000,0.0000000000
13,-90,35,22.24,1017.70,124.98,99.99,0,0,0,0,0.00,0.00,0,165,2,255,-8.8764562607,1.0043916702,-51.0708847046,124.9768371582,1017.91,22.00,0.0000000000,0.0000000000,0.0000000000
14,-90,37,22.30,1017.80,124.98,99.99,0,0,0,0,0.00,0.00,0,163,2,255,-8.8764486313,1.0044903755,-52.2166213989,124.9768371582,1017.89,22.02,0.0000000000,0.0000000000,0.0000000000
14,-92,39,22.33,1017.70,124.98,99.99,0,0,0,0,0.00,0.00,0,164,2,255,-8.8764562607,1.0043916702,-51.0708847046,124.9768371582,1017.88,22.10,0.0000000000,0.0000000000,0.0000000000
14,-91,41,22.35,1017.80,124.98,99.99,0,0,0,0,0.00,0.00,0,162,2,255,-8.8764486313,1.0044903755,-52.2166213989,124.9768371582,1017.86,22.07,0.0000000000,0.0000000000,0.0000000000
14,-91,43,22.38,1017.80,124.98,99.99,0,0,0,0,0.00,0.00,0,163,2,255,-8.8764486313,1.0044903755,-52.2166213989,124.9768371582,1017.88,22.08,0.0000000000,0.0000000000,0.0000000000
13,-92,45,22.38,1017.80,124.98,99.99,0,0,0,0,0.00,0.00,0,164,2,255,-8.8764486313,1.0044903755,-52.2166213989,124.9768371582,1017.92,22.16,0.0000000000,0.0000000000,0.0000000000
14,-90,47,22.41,1017.80,124.98,99.99,0,0,0,0,0.00,0.00,0,166,2,255,-8.8764486313,1.0044903755,-52.2166213989,124.9768371582,1017.91,22.13,0.0000000000,0.0000000000,0.0000000000
14,-92,48,22.42,1017.80,124.98,99.99,0,0,0,0,0.00,0.00,0,162,2,255,-8.8764486313,1.0044903755,-52.2166213989,124.9768371582,1017.87,22.14,0.0000000000,0.0000000000,0.0000000000
13,-92,50,22.46,1017.80,124.98,99.99,0,0,0,0,0.00,0.00,0,161,2,255,-8.8764486313,1.0044903755,-52.2166213989,124.9768371582,1017.86,22.21,0.0000000000,0.0000000000,0.00000000014,-86,54,19.58,1025.00,124.98,99.99,0,0,0,0,0.00,0.00,0,0,0,0,-8.8754472733,1.0115962029,-134.4600982666,124.9768371582,1026.26,19.74,0.0000000000,0.0000000000,0.0000000000
14,-88,55,19.63,1025.00,124.98,99.99,0,0,0,0,0.00,0.00,0,0,0,0,-8.8754472733,1.0115962029,-134.4600982666,124.9768371582,1026.25,19.72,0.0000000000,0.0000000000,0.0000000000
14,-88,56,19.63,1025.00,124.98,99.99,0,0,0,0,0.00,0.00,0,0,0,0,-8.8754472733,1.0115962029,-134.4600982666,124.9768371582,1026.26,19.72,0.0000000000,0.0000000000,0.0000000000
14,-88,58,20.03,1025.00,124.98,99.99,0,0,0,0,0.00,0.00,0,0,0,0,-14,-85,68,20.32,1025.00,124.98,99.99,0,0,0,0,0.00,0.00,0,0,0,0,-8.8754472733,1.0115962029,-134.4600982666,124.9768371582,1026.27,19.88,0.0000000000,0.0000000000,0.0000000000
14,-86,69,20.37,1025.00,124.98,99.99,0,0,0,0,0.00,0.00,0,0,0,0,-8.8754472733,1.0115962029,-134.4600982666,124.9768371582,1026.27,19.86,0.0000000000,0.0000000000,0.0000000000
14,-86,70,20.38,1025.10,124.98,99.99,0,0,0,0,0.00,0.00,0,0,0,0,-8.8754272461,1.0116949081,-135.5992279053,124.9768371582,1026.27,19.86,0.0000000000,0.0000000000,0.0000000000
14,-86,71,20.43,1025.00,124.98,99.99,0,0,0,0,0.00,0.00,0,0,0,0,-8.8754472733,1.0115962029,-134.4600982666,124.9768371582,1026.29,19.86,0.0000000000,0.0000000000,0.0000000000
14,-88,73,20.49,1025.00,124.98,99.99,0,0,0,0,0.00,0.00,0,0,0,0,-8.8754472733,1.0115962029,-134.4600982666,124.9768371582,1026.30,20.01,0.0000000000,0.0000000000,0.0000000000
14,-86,74,20.50,1025.00,124.98,99.99,0,0,0,0,0.00,0.00,0,0,0,0,-8.8754472733,1.0115962029,-134.4600982666,124.9768371582,1026.30,20.01,0.0000000000,0.0000000000,0.0000000000
14,-86,75,20.55,1025.00,124.98,99.99,0,0,0,0,0.00,0.00,0,0,0,0,-8.8754472733,1.0115962029,-134.4600982666,124.9768371582,1026.28,19.91,0.0000000000,0.0000000000,0.0000000000
14,-86,76,20.56,1025.00,124.98,99.99,0,0,0,0,0.00,0.00,0,0,0,0,-8.8754472733,1.0115962029,-134.4600982666,124.9768371582,1026.29,19.91,0.0000000000,0.0000000000,0.0000000000
14,-85,78,20.62,1025.00,124.98,99.99,0,0,0,0,0.00,0.00,0,0,0,0,-8.8754472733,1.0115962029,-134.4600982666,124.9768371582,1026.30,20.08,0.0000000000,0.0000000000,0.0000000000
14,-88,79,20.67,1025.00,124.98,99.99,0,0,0,0,0.00,0.00,0,0,0,0,-8.8754472733,1.0115962029,-134.4600982666,124.9768371582,1026.29,20.06,0.0000000000,0.0000000000,0.0000000000
14,-86,80,20.68,1025.10,124.98,99.99,0,0,0,0,0.00,0.00,0,0,0,0,-8.8754272461,1.0116949081,-135.5992279053,124.9768371582,1026.28,20.06,0.0000000000,0.0000000000,0.0000000000
14,-86,81,20.73,1025.10,124.98,99.99,0,0,0,0,0.00,0.00,0,0,0,0,-8.8754272461,1.0116949081,-135.5992279053,124.9768371582,1026.23,20.06,0.0000000000,0.0000000000,0.0000000000
14,-84,83,20.78,1025.00,124.98,99.99,0,0,0,0,0.00,0.00,0,0,0,0,-8.8754472733,1.0115962029,-134.4600982666,124.9768371582,1026.25,20.14,0.0000000000,0.0000000000,0.0000000000
14,-86,84,20.79,1025.00,124.98,99.99,0,0,0,0,0.00,0.00,0,0,0,0,-8.8754472733,1.0115962029,-134.4600982666,124.9768371582,1026.30,20.13,0.0000000000,0.0000000000,0.0000000000
14,-85,85,20.84,1025.00,124.98,99.99,0,0,0,0,0.00,0.00,0,0,0,0,-8.8754472733,1.0115962029,-134.4600982666,124.9768371582,1026.29,20.12,0.0000000000,0.0000000000,0.0000000000
14,-85,86,20.85,1025.00,124.98,99.99,0,0,0,0,0.00,0.00,0,0,0,0,-8.8754472733,1.0115962029,-134.4600982666,124.9768371582,1026.28,20.13,0.0000000000,0.0000000000,0.0000000000
14,-86,88,20.91,1025.00,124.98,99.99,0,0,0,0,0.00,0.00,0,0,0,0,-8.8754472733,1.0115962029,-134.4600982666,124.9768371582,1026.26,20.21,0.0000000000,0.0000000000,0.0000000000
14,-85,89,20.95,1025.00,124.98,99.99,0,0,0,0,0.00,0.00,0,0,0,0,-8.8754472733,1.0115962029,-134.4600982666,124.9768371582,1026.32,20.20,0.0000000000,0.0000000000,0.0000000000
14,-85,90,20.96,1025.00,124.98,99.99,0,0,0,0,0.00,0.00,0,0,0,0,-8.8754472733,1.0115962029,-134.4600982666,124.9768371582,1026.28,20.19,0.0000000000,0.0000000000,0.0000000000
14,-86,91,21.00,1025.10,124.98,99.99,0,0,0,0,0.00,0.00,0,0,0,0,-8.8754272461,1.0116949081,-135.5992279053,124.9768371582,1026.27,20.20,0.0000000000,0.0000000000,0.0000000000
14,-86,93,21.05,1025.10,124.98,99.99,0,0,0,0,0.00,0.00,0,0,0,0,-8.8754272461,1.0116949081,-135.5992279053,124.9768371582,1026.27,20.28,0.0000000000,0.0000000000,0.0000000000
14,-86,94,21.06,1025.00,124.98,99.99,0,0,0,0,0.00,0.00,0,0,0,0,-8.8754472733,1.0115962029,-134.4600982666,124.9768371582,1026.25,20.27,0.0000000000,0.0000000000,0.0000000000
14,-86,95,21.10,1025.00,124.98,99.99,0,0,0,0,0.00,0.00,0,0,0,0,-8.8754472733,1.0115962029,-134.4600982666,124.9768371582,1026.27,20.26,0.0000000000,0.0000000000,0.0000000000
14,-85,96,21.10,1025.00,124.98,99.99,0,0,0,0,0.00,0.00,0,0,0,0,-8.8754472733,1.0115962029,-134.4600982666,124.9768371582,1026.30,20.26,0.0000000000,0.0000000000,0.0000000000
14,-85,98,21.16,1025.00,124.98,99.99,0,0,0,0,0.00,0.00,0,0,0,0,-8.8754472733,1.0115962029,-134.4600982666,124.9768371582,1026.29,20.32,0.0000000000,0.0000000000,0.0000000000
14,-85,99,21.20,1025.10,124.98,99.99,0,0,0,0,0.00,0.00,0,0,0,0,-8.8754272461,1.0116949081,-135.5992279053,124.9768371582,1026.30,20.31,0.0000000000,0.0000000000,0.0000000000
14,-85,100,21.21,1025.00,124.98,99.99,0,0,0,0,0.00,0.00,0,0,0,0,-8.8754472733,1.0115962029,-134.4600982666,124.9768371582,1026.28,20.30,0.0000000000,0.0000000000,0.0000000000
14,-86,101,21.24,1025.00,124.98,99.99,0,0,0,0,0.00,0.00,0,0,0,0,-8.8754472733,1.0115962029,-134.4600982666,124.9768371582,1026.31,20.31,0.0000000000,0.0000000000,0.0000000000
14,-86,103,21.28,1025.00,124.98,99.99,0,0,0,0,0.00,0.00,0,0,0,0,-8.8754472733,1.0115962029,-134.4600982666,124.9768371582,1026.28,20.39,0.0000000000,0.0000000000,0.0000000000
15,-86,104,21.29,1025.10,124.98,99.99,0,0,0,0,0.00,0.00,0,0,0,0,-8.8754272461,1.0116949081,-135.5992279053,124.9768371582,1026.28,20.38,0.0000000000,0.0000000000,0.0000000000
14,-86,105,21.33,1025.00,124.98,99.99,0,0,0,0,0.00,0.00,0,0,0,0,-8.8754472733,1.0115962029,-134.4600982666,124.9768371582,1026.27,20.38,0.0000000000,0.0000000000,0.0000000000
14,-86,106,21.34,1025.00,124.98,99.99,0,0,0,0,0.00,0.00,0,0,0,0,-8.8754472733,1.0115962029,-134.4600982666,124.9768371582,1026.27,20.39,0.0000000000,0.0000000000,0.0000000000
14,-86,108,21.39,1025.00,124.98,99.99,0,0,0,0,0.00,0.00,0,0,0,0,-8.8754472733,1.0115962029,-134.4600982666,124.9768371582,1026.29,20.48,0.0000000000,0.0000000000,0.0000000000
14,-85,109,21.43,1025.00,124.98,99.99,0,0,0,0,0.00,0.00,0,0,0,0,-8.8754472733,1.0115962029,-134.4600982666,124.9768371582,1026.28,20.46,0.0000000000,0.0000000000,0.0000000000
14,-85,110,21.44,1025.10,124.98,99.99,0,0,0,0,0.00,0.00,0,0,0,0,-8.8754272461,1.0116949081,-135.5992279053,124.9768371582,1026.29,20.47,0.0000000000,0.0000000000,0.0000000000
14,-86,111,21.47,1025.10,124.98,99.99,0,0,0,0,0.00,0.00,0,0,0,0,-8.8754272461,1.0116949081,-135.5992279053,124.9768371582,1026.28,20.47,0.0000000000,0.0000000000,0.0000000000
14,-86,113,21.52,1025.10,124.98,99.99,0,0,0,0,0.00,0.00,0,0,0,0,-8.8754272461,1.0116949081,-135.5992279053,124.9768371582,1026.27,20.54,0.0000000000,0.0000000000,0.0000000000
14,-86,114,21.52,1025.10,124.98,99.99,0,0,0,0,0.00,0.00,0,0,0,0,-8.8754272461,1.0116949081,-135.5992279053,124.9768371582,1026.28,20.53,0.0000000000,0.0000000000,0.0000000000
14,-85,115,21.56,1025.10,124.98,99.99,0,0,0,0,0.00,0.00,0,0,0,0,-8.8754272461,1.0116949081,-135.5992279053,124.9768371582,1026.28,20.53,0.0000000000,0.0000000000,0.0000000000
14,-86,116,21.57,1025.10,124.98,99.99,0,0,0,0,0.00,0.00,0,0,0,0,-8.8754272461,1.0116949081,-135.5992279053,124.9768371582,1026.29,20.54,0.0000000000,0.0000000000,0.0000000000
14,-86,118,21.61,1025.00,124.98,99.99,0,0,0,0,0.00,0.00,0,0,0,0,-8.8754472733,1.0115962029,-134.4600982666,124.9768371582,1026.26,20.62,0.0000000000,0.0000000000,0.0000000000
14,-86,119,21.65,1025.00,124.98,99.99,0,0,0,0,0.00,0.00,0,0,0,0,-8.8754472733,1.0115962029,-134.4600982666,124.9768371582,1026.29,20.61,0.0000000000,0.0000000000,0.0000000000
15,-85,120,21.66,1025.00,124.98,99.99,0,0,0,0,0.00,0.00,0,0,0,0,-8.8754472733,1.0115962029,-134.4600982666,124.9768371582,1026.27,20.62,0.0000000000,0.0000000000,0.0000000000
14,-86,121,21.69,1025.00,124.98,99.99,0,0,0,0,0.00,0.00,0,0,0,0,-8.8754472733,1.0115962029,-134.4600982666,124.9768371582,1026.30,20.63,0.0000000000,0.0000000000,0.0000000000
14,-85,123,21.74,1025.10,124.98,99.99,0,0,0,0,0.00,0.00,0,0,0,0,-8.8754272461,1.0116949081,-135.5992279053,124.9768371582,1026.27,20.72,0.0000000000,0.0000000000,0.0000000000
14,-85,124,21.74,1025.10,124.98,99.99,0,0,0,0,0.00,0.00,0,0,0,0,-8.8754272461,1.0116949081,-135.5992279053,124.9768371582,1026.26,20.72,0.0000000000,0.0000000000,0.0000000000
14,-85,125,21.79,1025.10,124.98,99.99,0,0,0,0,0.00,0.00,0,0,0,0,-8.8754272461,1.0116949081,-135.5992279053,124.9768371582,1026.27,20.72,0.0000000000,0.0000000000,0.0000000000
14,-85,126,21.80,1025.00,124.98,99.99,0,0,0,0,0.00,0.00,0,0,0,0,-8.8754472733,1.0115962029,-134.4600982666,124.9768371582,1026.28,20.72,0.0000000000,0.0000000000,0.0000000000
14,-85,128,21.84,1025.10,124.98,99.99,0,0,0,0,0.00,0.00,0,0,0,0,-8.8754272461,1.0116949081,-135.5992279053,124.9768371582,1026.25,20.79,0.0000000000,0.00014,-86,194,17.30,1025.10,124.98,99.99,0,0,0,0,0.00,0.00,0,0,0,0,-8.8754272461,1.0116949081,-135.5992279053,124.9768371582,1026.32,21.60,0.0000000000,0.0000000000,0.0000000000
14,-88,195,17.33,1025.10,124.98,99.99,0,0,0,0,0.00,0.00,0,0,0,0,-8.8754272461,1.0116949081,-135.5992279053,124.9768371582,1026.32,21.60,0.0000000000,0.0000000000,0.0000000000
14,-88,196,17.33,1025.10,124.98,99.99,0,0,0,0,0.00,0.00,0,0,0,0,-8.8754272461,1.0116949081,-135.5992279053,124.9768371582,1026.33,21.61,0.0000000000,0.0000000000,0.0000000000
14,-88,198,17.35,1025.10,124.98,99.99,0,0,0,0,0.00,0.00,0,0,0,0,14,-86,303,18.47,1025.20,124.98,99.99,0,0,0,0,0.00,0.00,0,0,0,0,-8.8754072189,1.0117936134,-136.7382507324,124.9768371582,1026.35,17.30,0.0000000000,0.0000000000,0.0000000000
14,-88,304,18.47,1025.20,124.98,99.99,0,0,0,0,0.00,0.00,0,0,0,0,-8.8754072189,1.0117936134,-136.7382507324,124.9768371582,1026.38,17.27,0.0000000000,0.0000000000,0.0000000000
14,-86,305,18.48,1025.20,124.98,99.99,0,0,0,0,0.00,0.00,0,0,0,0,-8.8754072189,1.0117936134,-136.7382507324,124.9768371582,1026.35,17.25,0.0000000000,0.0000000000,0.0000000000
15,-86,306,18.48,1025.20,124.98,99.99,0,0,0,0,0.00,0.00,0,0,0,0,-8.8754072189,1.0117936134,-136.7382507324,124.9768371582,1026.35,17.24,0.0000000000,0.0000000000,0.0000000000
14,-85,308,18.49,1025.20,124.98,99.99,0,0,0,0,0.00,0.00,0,0,0,0,-8.8754072189,1.0117936134,-136.7382507324,124.9768371582,1026.39,17.29,0.0000000000,0.0000000000,0.0000000000
14,-86,309,18.51,1025.20,124.98,99.99,0,0,0,0,0.00,0.00,0,0,0,0,-8.8754072189,1.0117936134,-136.7382507324,124.9768371582,1026.37,17.27,0.0000000000,0.0000000000,0.0000000000
14,-85,310,18.51,1025.20,124.98,99.99,0,0,0,0,0.00,0.00,0,0,0,0,-8.8754072189,1.0117936134,-136.7382507324,124.9768371582,1026.34,17.27,0.0000000000,0.0000000000,0.0000000000
14,-86,311,18.53,1025.20,124.98,99.99,0,0,0,0,0.00,0.00,0,0,0,0,-8.8754072189,1.0117936134,-136.7382507324,124.9768371582,1026.33,17.26,0.0000000000,0.0000000000,0.0000000000
14,-86,313,18.55,1025.20,124.98,99.99,0,0,0,0,0.00,0.00,0,0,0,0,-8.8754072189,1.0117936134,-136.7382507324,124.9768371582,1026.36,17.32,0.0000000000,0.0000000000,0.0000000000
15,-85,314,18.55,1025.10,124.98,99.99,0,0,0,0,0.00,0.00,0,0,0,0,-8.8754272461,1.0116949081,-135.5992279053,124.9768371582,1026.36,17.31,0.0000000000,0.0000000000,0.0000000000
14,-86,315,18.57,1025.20,124.98,99.99,0,0,0,0,0.00,0.00,0,0,0,0,-8.8754072189,1.0117936134,-136.7382507324,124.9768371582,1026.34,17.30,0.0000000000,0.0000000000,0.0000000000
15,-88,316,18.56,1025.20,124.98,99.99,0,0,0,0,0.00,0.00,0,0,0,0,-8.8754072189,1.0117936134,-136.7382507324,124.9768371582,1026.33,17.30,0.0000000000,0.0000000000,0.0000000000
14,-85,318,18.57,1025.20,124.98,99.99,0,0,0,0,0.00,0.00,0,0,0,0,-8.8754072189,1.0117936134,-136.7382507324,124.9768371582,1026.34,17.33,0.0000000000,0.0000000000,0.0000000000
14,-86,319,18.59,1025.20,124.98,99.99,0,0,0,0,0.00,0.00,0,0,0,0,-8.8754072189,1.0117936134,-136.7382507324,124.9768371582,1026.34,17.32,0.0000000000,0.0000000000,0.0000000000
14,-85,320,18.59,1025.20,124.98,99.99,0,0,0,0,0.00,0.00,0,0,0,0,-8.8754072189,1.0117936134,-136.7382507324,124.9768371582,1026.34,17.30,0.0000000000,0.0000000000,0.0000000000
14,-86,321,18.61,1025.20,124.98,99.99,0,0,0,0,0.00,0.00,0,0,0,0,-8.8754072189,1.0117936134,-136.7382507324,124.9768371582,1026.31,17.29,0.0000000000,0.0000000000,0.0000000000
14,-86,323,18.63,1025.10,124.98,99.99,0,0,0,0,0.00,0.00,0,0,0,0,-8.8754272461,1.0116949081,-135.5992279053,124.9768371582,1026.33,17.33,0.0000000000,0.0000000000,0.0000000000
15,-86,324,18.62,1025.20,124.98,99.99,0,0,0,0,0.00,0.00,0,0,0,0,-8.8754072189,1.0117936134,-136.7382507324,124.9768371582,1026.31,17.31,0.0000000000,0.0000000000,0.0000000000
14,-85,325,18.65,1025.20,124.98,99.99,0,0,0,0,0.00,0.00,0,0,0,0,-8.8754072189,1.0117936134,-136.7382507324,124.9768371582,1026.29,17.31,0.0000000000,0.0000000000,0.0000000000
14,-86,326,18.64,1025.20,124.98,99.99,0,0,0,0,0.00,0.00,0,0,0,0,-8.8754072189,1.0117936134,-136.7382507324,124.9768371582,1026.32,17.31,0.0000000000,0.0000000000,0.0000000000
14,-86,328,18.65,1025.10,124.98,99.99,0,0,0,0,0.00,0.00,0,0,0,0,-8.8754272461,1.0116949081,-135.5992279053,124.9768371582,1026.31,17.36,0.0000000000,0.0000000000,0.0000000000
14,-86,329,18.67,1025.10,124.98,99.99,0,0,0,0,0.00,0.00,0,0,0,0,-8.8754272461,1.0116949081,-135.5992279053,124.9768371582,1026.29,17.34,0.0000000000,0.0000000000,0.0000000000
14,-84,330,18.67,1025.20,124.98,99.99,0,0,0,0,0.00,0.00,0,0,0,0,-8.8754072189,1.0117936134,-136.7382507324,124.9768371582,1026.32,17.36,0.0000000000,0.0000000000,0.0000000000
14,-85,331,18.69,1025.20,124.98,99.99,0,0,0,0,0.00,0.00,0,0,0,0,-8.8754072189,1.0117936134,-136.7382507324,124.9768371582,1026.30,17.38,0.0000000000,0.0000000000,0.0000000000
14,-86,333,18.71,1025.20,124.98,99.99,0,0,0,0,0.00,0.00,0,0,0,0,-8.8754072189,1.0117936134,-136.7382507324,124.9768371582,1026.31,17.45,0.0000000000,0.0000000000,0.0000000000
14,-86,334,18.70,1025.20,124.98,99.99,0,0,0,0,0.00,0.00,0,0,0,0,-8.8754072189,1.0117936134,-136.7382507324,124.9768371582,1026.31,17.43,0.0000000000,0.0000000000,0.0000000000
14,-85,335,18.72,1025.20,124.98,99.99,0,0,0,0,0.00,0.00,0,0,0,0,-8.8754072189,1.0117936134,-136.7382507324,124.9768371582,1026.32,17.43,0.0000000000,0.0000000000,0.0000000000
15,-86,336,18.72,1025.10,124.98,99.99,0,0,0,0,0.00,0.00,0,0,0,0,-8.8754272461,1.0116949081,-135.5992279053,124.9768371582,1026.30,17.41,0.0000000000,0.0000000000,0.0000000000
14,-86,338,18.73,1025.20,124.98,99.99,0,0,0,0,0.00,0.00,0,0,0,0,-8.8754072189,1.0117936134,-136.7382507324,124.9768371582,1026.29,17.46,0.0000000000,0.0000000000,0.0000000000
14,-85,339,18.74,1025.20,124.98,99.99,0,0,0,0,0.00,0.00,0,0,0,0,-8.8754072189,1.0117936134,-136.7382507324,124.9768371582,1026.30,17.43,0.0000000000,0.0000000000,0.0000000000
14,-86,340,18.74,1025.20,124.98,99.99,0,0,0,0,0.00,0.00,0,0,0,0,-8.8754072189,1.0117936134,-136.7382507324,124.9768371582,1026.33,17.42,0.0000000000,0.0000000000,0.0000000000
14,-86,341,18.75,1025.10,124.98,99.99,0,0,0,0,0.00,0.00,0,0,0,0,-8.8754272461,1.0116949081,-135.5992279053,124.9768371582,1026.30,17.41,0.0000000000,0.0000000000,0.0000000000
14,-85,343,18.77,1025.20,124.98,99.99,0,0,0,0,0.00,0.00,0,0,0,0,-8.8754072189,1.0117936134,-136.7382507324,124.9768371582,1026.32,17.47,0.0000000000,0.0000000000,0.0000000000
14,-85,344,18.77,1025.10,124.98,99.99,0,0,0,0,0.00,0.00,0,0,0,0,-8.8754272461,1.0116949081,-135.5992279053,124.9768371582,1026.28,17.46,0.0000000000,0.0000000000,0.0000000000
14,-84,345,18.78,1025.10,124.98,99.99,0,0,0,0,0.00,0.00,0,0,0,0,-8.8754272461,1.0116949081,-135.5992279053,124.9768371582,1026.27,17.45,0.0000000000,0.0000000000,0.0000000000
15,-86,346,18.78,1025.10,124.98,99.99,0,0,0,0,0.00,0.00,0,0,0,0,-8.8754272461,1.0116949081,-135.5992279053,124.9768371582,1026.31,17.46,0.0000000000,0.0000000000,0.0000000000
14,-86,348,18.79,1025.10,124.98,99.99,0,0,0,0,0.00,0.00,0,0,0,0,-8.8754272461,1.0116949081,-135.5992279053,124.9768371582,1026.31,17.52,0.0000000000,0.0000000000,0.0000000000
14,-88,349,18.81,1025.20,124.98,99.99,0,0,0,0,0.00,0.00,0,0,0,0,-8.8754072189,1.0117936134,-136.7382507324,124.9768371582,1026.29,17.50,0.0000000000,0.0000000000,0.0000000000
14,-85,350,18.81,1025.10,124.98,99.99,0,0,0,0,0.00,0.00,0,0,0,0,-8.8754272461,1.0116949081,-135.5992279053,124.9768371582,1026.32,17.50,0.0000000000,0.0000000000,0.0000000000
14,-84,351,18.82,1025.20,124.98,99.99,0,0,0,0,0.00,0.00,0,0,0,0,-8.8754072189,1.0117936134,-136.7382507324,124.9768371582,1026.33,17.49,0.0000000000,0.0000000000,0.0000000000
14,-85,353,18.82,1025.20,124.98,99.99,0,0,0,0,0.00,0.00,0,0,0,0,-8.8754072189,1.0117936134,-136.7382507324,124.9768371582,1026.31,17.56,0.0000000000,0.0000000000,0.0000000000
14,-85,354,18.83,1025.20,124.98,99.99,0,0,0,0,0.00,0.00,0,0,0,0,-8.8754072189,1.0117936134,-136.7382507324,124.9768371582,1026.31,17.55,0.0000000000,0.0000000000,0.0000000000
14,-84,355,18.84,1025.20,124.98,99.99,0,0,0,0,0.00,0.00,0,0,0,0,-8.8754072189,1.0117936134,-136.7382507324,124.9768371582,1026.31,17.55,0.0000000000,0.0000000000,0.0000000000
14,-86,356,18.84,1025.10,124.98,99.99,0,0,0,0,0.00,0.00,0,0,0,0,-8.8754272461,1.0116949081,-135.5992279053,124.9768371582,1026.33,17.55,0.0000000000,0.0000000000,0.0000000000
14,-84,358,18.85,1025.20,124.98,99.99,0,0,0,0,0.00,0.00,0,0,0,0,-8.8754072189,1.0117936134,-136.7382507324,124.9768371582,1026.33,17.61,0.0000000000,0.0000000000,0.0000000000
14,-85,359,18.87,1025.20,124.98,99.99,0,0,0,0,0.00,0.00,0,0,0,0,-8.8754072189,1.0117936134,-136.7382507324,124.9768371582,1026.36,17.59,0.0000000000,0.0000000000,0.0000000000
15,-88,360,18.86,1025.20,124.98,99.99,0,0,0,0,0.00,0.00,0,0,0,0,-8.8754072189,1.0117936134,-136.7382507324,124.9768371582,1026.33,17.58,0.0000000000,0.0000000000,0.0000000000
14,-86,361,18.88,1025.20,124.98,99.99,0,0,0,0,0.00,0.00,0,0,0,0,-8.8754072189,1.0117936134,-136.7382507324,124.9768371582,1026.32,17.59,0.0000000000,0.0000000000,0.0000000000
14,-85,363,18.89,1025.20,124.98,99.99,0,0,0,0,0.00,0.00,0,0,0,0,-8.8754072189,1.0117936134,-136.7382507324,124.9768371582,1026.36,17.65,0.0000000000,0.0000000000,0.0000000000
15,-85,364,18.89,1025.20,124.98,99.99,0,0,0,0,0.00,0.00,0,0,0,0,-8.8754072189,1.0117936134,-136.7382507324,124.9768371582,1026.34,17.65,0.0000000000,0.0000000000,0.0000000000
14,-86,365,18.90,1025.20,124.98,99.99,0,0,0,0,0.00,0.00,0,0,0,0,-8.8754072189,1.0117936134,-136.7382507324,124.9768371582,1026.32,17.64,0.0000000000,0.0000000000,0.0000000000
14,-86,366,18.90,1025.20,124.98,99.99,0,0,0,0,0.00,0.00,0,0,0,0,-8.8754072189,1.0117936134,-136.7382507324,124.9768371582,1026.35,17.65,0.0000000000,0.0000000000,0.0000000000
14,-85,368,18.90,1025.20,124.98,99.99,0,0,0,0,0.00,0.00,0,0,0,0,-8.8754072189,1.0117936134,-136.7382507324,124.9768371582,1026.35,17.72,0.0000000000,0.0000000000,0.0000000000
14,-85,369,18.91,1025.20,124.98,99.99,0,0,0,0,0.00,0.00,0,0,0,0,-8.8754072189,1.0117936134,-136.7382507324,124.9768371582,1026.37,17.69,0.0000000000,0.0000000000,0.0000000000
14,-86,370,18.92,1025.20,124.98,99.99,0,0,0,0,0.00,0.00,0,0,0,0,-8.8754072189,1.0117936134,-136.7382507324,124.9768371582,1026.35,17.68,0.0000000000,0.0000000000,0.0000000000
14,-86,371,18.93,1025.20,124.98,99.99,0,0,0,0,0.00,0.00,0,0,0,0,-8.8754072189,1.0117936134,-136.7382507324,124.9768371582,1026.36,17.67,0.0000000000,0.0000000000,0.0000000000
14,-86,373,18.94,1025.20,124.98,99.99,0,0,0,0,0.00,0.00,0,0,0,0,-8.8754072189,1.0117936134,-136.7382507324,124.9768371582,1026.35,17.70,0.0000000000,0.0000000000,0.0000000000
14,-85,374,18.94,1025.20,124.98,99.99,0,0,0,0,0.00,0.00,0,0,0,0,-8.8754072189,1.0117936134,-136.7382507324,124.9768371582,1026.35,17.68,0.0000000000,0.0000000000,0.0000000000
14,-86,375,18.96,1025.20,124.98,99.99,0,0,0,0,0.00,0.00,0,0,0,0,-8.8754072189,1.0117936134,-136.7382507324,124.9768371582,1026.30,17.66,0.0000000000,0.0000000000,0.0000000000
15,-85,376,18.96,1025.20,124.98,99.99,0,0,0,0,0.00,0.00,0,0,0,0,-8.8754072189,1.0117936134,-136.7382507324,124.9768371582,1026.31,17.66,0.0000000000,0.0000000000,0.0000000000
14,-86,378,18.97,1025.20,124.98,99.99,0,0,0,0,0.00,0.00,0,0,0,0,-8.8754072189,1.0117936134,-136.7382507324,124.9768371582,1026.33,17.72,0.0000000000,0.0000000000,0.0000000000
14,-86,379,18.99,1025.20,124.98,99.99,0,0,0,0,0.00,0.00,0,0,0,0,-8.8754072189,1.0117936134,-136.7382507324,124.9768371582,1026.32,17.69,0.0000000000,0.0000000000,0.0000000000
14,-86,380,18.98,1025.20,124.98,99.99,0,0,0,0,0.00,0.00,0,0,0,0,-8.8754072189,1.0117936134,-136.7382507324,124.9768371582,1026.31,17.68,0.0000000000,0.0000000000,0.0000000000
14,-86,381,19.00,1025.20,124.98,99.99,0,0,0,0,0.00,0.00,0,0,0,0,-8.8754072189,1.0117936134,-136.7382507324,124.9768371582,1026.38,17.69,0.0000000000,0.0000000000,0.0000000000
14,-86,383,19.00,1025.20,124.98,99.99,0,0,0,0,0.00,0.00,0,0,0,0,-8.8754072189,1.0117936134,-136.7382507324,124.9768371582,1026.32,17.75,0.0000000000,0.0000000000,0.0000000000
14,-85,384,19.00,1025.10,124.98,99.99,0,0,0,0,0.00,0.00,0,0,0,0,-8.8754272461,1.0116949081,-135.5992279053,124.9768371582,1026.33,17.74,0.0000000000,0.0000000000,0.0000000000
14,-86,385,19.01,1025.10,124.98,99.99,0,0,0,0,0.00,0.00,0,0,0,0,-8.8754272461,1.0116949081,-135.5992279053,124.9768371582,1026.32,17.73,0.0000000000,0.0000000000,0.0000000000
14,-85,386,19.00,1025.20,124.98,99.99,0,0,0,0,0.00,0.00,0,0,0,0,-8.8754072189,1.0117936134,-136.7382507324,124.9768371582,1026.33,17.72,0.0000000000,0.0000000000,0.0000000000
14,-86,388,19.02,1025.20,124.98,99.99,0,0,0,0,0.00,0.00,0,0,0,0,-8.8754072189,1.0117936134,-136.7382507324,124.9768371582,1026.33,17.79,0.0000000000,0.0000000000,0.0000000000
14,-85,389,19.03,1025.20,124.98,99.99,0,0,0,0,0.00,0.00,0,0,0,0,-8.8754072189,1.0117936134,-136.7382507324,124.9768371582,1026.34,17.76,0.0000000000,0.0000000000,0.0000000000
14,-86,390,19.02,1025.20,124.98,99.99,0,0,0,0,0.00,0.00,0,0,0,0,-8.8754072189,1.0117936134,-136.7382507324,124.9768371582,1026.30,17.75,0.0000000000,0.0000000000,0.0000000000
14,-85,391,19.04,1025.10,124.98,99.99,0,0,0,0,0.00,0.00,0,0,0,0,-8.8754272461,1.0116949081,-135.5992279053,124.9768371582,1026.35,17.75,0.0000000000,0.0000000000,0.0000000000
14,-85,393,19.06,1025.20,124.98,99.99,0,0,0,0,0.00,0.00,0,0,0,0,-8.8754072189,1.0117936134,-136.7382507324,124.9768371582,1026.34,17.80,0.0000000000,0.0000000000,0.0000000000
14,-86,394,19.05,1025.20,124.98,99.99,0,0,0,0,0.00,0.00,0,0,0,0,-8.8754072189,1.0117936134,-136.7382507324,124.9768371582,1026.34,17.79,0.0000000000,0.0000000000,0.0000000000
14,-86,395,19.07,1025.20,124.98,99.99,0,0,0,0,0.00,0.00,0,0,0,0,-8.8754072189,1.0117936134,-136.7382507324,124.9768371582,1026.33,17.77,0.0000000000,0.0000000000,0.0000000000
14,-85,396,19.06,1025.20,124.98,99.99,0,0,0,0,0.00,0.00,0,0,0,0,-8.8754072189,1.0117936134,-136.7382507324,124.9768371582,1026.36,17.77,0.0000000000,0.0000000000,0.0000000000
14,-85,398,19.08,1025.20,124.98,99.99,0,0,0,0,0.00,0.00,0,0,0,0,-8.8754072189,1.0117936134,-136.7382507324,124.9768371582,1026.30,17.83,0.0000000000,0.0000000000,0.0000000000
14,-86,399,19.09,1025.20,124.98,99.99,0,0,0,0,0.00,0.00,0,0,0,0,-8.8754072189,1.0117936134,-136.7382507324,124.9768371582,1026.35,17.81,0.0000000000,0.0000000000,0.0000000000
14,-86,400,19.09,1025.20,124.98,99.99,0,0,0,0,0.00,0.00,0,0,0,0,-8.8754072189,1.0117936134,-136.7382507324,124.9768371582,1026.37,17.81,0.0000000000,0.0000000000,0.0000000000
14,-86,401,19.10,1025.20,124.98,99.99,0,0,0,0,0.00,0.00,0,0,0,0,-8.8754072189,1.0117936134,-136.7382507324,124.9768371582,1026.35,17.80,0.0000000000,0.0000000000,0.0000000000
14,-86,403,19.11,1025.20,124.98,99.99,0,0,0,0,0.00,0.00,0,0,0,0,-8.8754072189,1.0117936134,-136.7382507324,124.9768371582,1026.36,17.86,0.0000000000,0.0000000000,0.0000000000
14,-85,404,19.11,1025.20,124.98,99.99,0,0,0,0,0.00,0.00,0,0,0,0,-8.8754072189,1.0117936134,-136.7382507324,124.9768371582,1026.35,17.85,0.0000000000,0.0000000000,0.0000000000
14,-86,405,19.13,1025.20,124.98,99.99,0,0,0,0,0.00,0.00,0,0,0,0,-8.8754072189,1.0117936134,-136.7382507324,124.9768371582,1026.36,17.84,0.0000000000,0.0000000000,0.0000000000
14,-85,406,19.13,1025.20,124.98,99.99,0,0,0,0,0.00,0.00,0,0,0,0,-8.8754072189,1.0117936134,-136.7382507324,124.9768371582,1026.34,17.84,0.0000000000,0.0000000000,0.0000000000
14,-85,408,19.13,1025.20,124.98,99.99,0,0,0,0,0.00,0.00,0,0,0,0,-8.8754072189,1.0117936134,-136.7382507324,124.9768371582,1026.35,17.89,0.0000000000,0.0000000000,0.0000000000
14,-86,409,19.15,1025.20,124.98,99.99,0,0,0,0,0.00,0.00,0,0,0,0,-8.8754072189,1.0117936134,-136.7382507324,124.9768371582,1026.38,17.87,0.0000000000,0.0000000000,0.0000000000
14,-88,410,19.14,1025.20,124.98,99.99,0,0,0,0,0.00,0.00,0,0,0,0,-8.8754072189,1.0117936134,-136.7382507324,124.9768371582,1026.35,17.86,0.0000000000,0.0000000000,0.0000000000
14,-86,411,19.16,1025.20,124.98,99.99,0,0,0,0,0.00,0.00,0,0,0,0,-8.8754072189,1.0117936134,-136.7382507324,124.9768371582,1026.40,17.84,0.0000000000,0.0000000000,0.0000000000
14,-86,413,19.17,1025.20,124.98,99.99,0,0,0,0,0.00,0.00,0,0,0,0,-8.8754072189,1.0117936134,-136.7382507324,124.9768371582,1026.36,17.90,0.0000000000,0.0000000000,0.0000000000
14,-85,414,19.17,1025.20,124.98,99.99,0,0,0,0,0.00,0.00,0,0,0,0,-8.8754072189,1.0117936134,-136.7382507324,124.9768371582,1026.36,17.87,0.0000000000,0.0000000000,0.0000000000
14,-86,415,19.17,1025.20,124.98,99.99,0,0,0,0,0.00,0.00,0,0,0,0,-8.8754072189,1.0117936134,-136.7382507324,124.9768371582,1026.36,17.86,0.0000000000,0.0000000000,0.0000000000
14,-85,416,19.17,1025.20,124.98,99.99,0,0,0,0,0.00,0.00,0,0,0,0,-8.8754072189,1.0117936134,-136.7382507324,124.9768371582,1026.37,17.86,0.0000000000,0.0000000000,0.0000000000
14,-86,418,19.18,1025.20,124.98,99.99,0,0,0,0,0.00,0.00,0,0,0,0,-8.8754072189,1.0117936134,-136.7382507324,124.9768371582,1026.31,17.92,0.0000000000,0.0000000000,0.0000000000
14,-86,419,19.19,1025.20,124.98,99.99,0,0,0,0,0.00,0.00,0,0,0,0,-8.8754072189,1.0117936134,-136.7382507324,124.9768371582,1026.35,17.90,0.0000000000,0.0000000000,0.0000000000
14,-86,420,19.19,1025.20,124.98,99.99,0,0,0,0,0.00,0.00,0,0,0,0,-8.8754072189,1.0117936134,-136.7382507324,124.9768371582,1026.36,17.89,0.0000000000,0.0000000000,0.0000000000
14,-85,421,19.19,1025.20,124.98,99.99,0,0,0,0,0.00,0.00,0,0,0,0,-8.8754072189,1.0117936134,-136.7382507324,124.9768371582,1026.34,17.89,0.0000000000,0.0000000000,0.0000000000
14,-85,423,19.97,1025.20,124.98,99.99,0,0,0,0,0.00,0.00,0,0,0,0,-8.8754072189,1.0117936134,-136.7382507324,124.9768371582,1026.35,17.94,0.0000000000,0.0000000000,0.0000000000
14,-88,424,19.19,1025.20,124.98,99.99,0,0,0,0,0.00,0.00,0,0,0,0,-8.8754072189,1.0117936134,-136.7382507324,124.9768371582,1026.34,17.92,0.0000000000,0.0000000000,0.0000000000
14,-88,425,19.98,1025.20,124.98,99.99,0,0,0,0,0.00,0.00,0,0,0,0,-8.8754072189,1.0117936134,-136.7382507324,124.9768371582,1026.34,17.91,0.0000000000,0.0000000000,0.0000000000
15,-86,426,19.97,1025.20,124.98,99.99,0,0,0,0,0.00,0.00,0,0,0,0,-8.8754072189,1.0117936134,-136.7382507324,124.9768371582,1026.37,17.91,0.0000000000,0.0000000000,0.0000000000
14,-85,428,19.98,1025.20,124.98,99.99,0,0,0,0,0.00,0.00,0,0,0,0,-8.8754072189,1.0117936134,-136.7382507324,124.9768371582,1026.38,17.96,0.0000000000,0.0000000000,0.0000000000
14,-86,429,20.00,1025.20,124.98,99.99,0,0,0,0,0.00,0.00,0,0,0,0,-8.8754072189,1.0117936134,-136.7382507324,124.9768371582,1026.34,17.95,0.0000000000,0.0000000000,0.0000000000
15,-85,430,19.99,1025.10,124.98,99.99,0,0,0,0,0.00,0.00,0,0,0,0,-8.8754272461,1.0116949081,-135.5992279053,124.9768371582,1026.35,17.94,0.0000000000,0.0000000000,0.0000000000
14,-88,431,20.01,1025.20,124.98,99.99,0,0,0,0,0.00,0.00,0,0,0,0,-8.8754072189,1.0117936134,-136.7382507324,124.9768371582,1026.33,17.94,0.0000000000,0.0000000000,0.0000000000
14,-85,433,20.02,1025.20,124.98,99.99,0,0,0,0,0.00,0.00,0,0,0,0,-8.8754072189,1.0117936134,-136.7382507324,124.9768371582,1026.36,18.00,0.0000000000,0.0000000000,0.0000000000
14,-88,434,20.01,1025.30,124.98,99.99,0,0,0,0,0.00,0.00,0,0,0,0,-8.8753862381,1.0118923187,-137.8771972656,124.9768371582,1026.37,17.98,0.0000000000,0.0000000000,0.0000000000
14,-86,435,20.03,1025.20,124.98,99.99,0,0,0,0,0.00,0.00,0,0,0,0,-8.8754072189,1.0117936134,-136.7382507324,124.9768371582,1026.32,17.97,0.0000000000,0.0000000000,0.0000000000
15,-86,436,20.03,1025.20,124.98,99.99,0,0,0,0,0.00,0.00,0,0,0,0,-8.8754072189,1.0117936134,-136.7382507324,124.9768371582,1026.39,17.97,0.0000000000,0.0000000000,0.0000000000
14,-86,438,20.04,1025.20,124.98,99.99,0,0,0,0,0.00,0.00,0,0,0,0,-8.8754072189,1.0117936134,-136.7382507324,124.9768371582,1026.40,18.02,0.0000000000,0.0000000000,0.0000000000
14,-86,439,20.05,1025.20,124.98,99.99,0,0,0,0,0.00,0.00,0,0,0,0,-8.8754072189,1.0117936134,-136.7382507324,124.9768371582,1026.36,17.98,0.0000000000,0.0000000000,0.0000000000
14,-86,440,20.04,1025.20,124.98,99.99,0,0,0,0,0.00,0.00,0,0,0,0,-8.8754072189,1.0117936134,-136.7382507324,124.9768371582,1026.37,17.96,0.0000000000,0.0000000000,0.0000000000
14,-85,441,20.06,1025.20,124.98,99.99,0,0,0,0,0.00,0.00,0,0,0,0,-8.8754072189,1.0117936134,-136.7382507324,124.9768371582,1026.38,17.96,0.0000000000,0.0000000000,0.0000000000
14,-88,443,20.06,1025.20,124.98,99.99,0,0,0,0,0.00,0.00,0,0,0,0,-8.8754072189,1.0117936134,-136.7382507324,124.9768371582,1026.37,17.99,0.0000000000,0.0000000000,0.0000000000
14,-86,444,20.06,1025.20,124.98,99.99,0,0,0,0,0.00,0.00,0,0,0,0,-8.8754072189,1.0117936134,-136.7382507324,124.9768371582,1026.35,17.96,0.0000000000,0.0000000000,0.0000000000
14,-85,445,20.07,1025.20,124.98,99.99,0,0,0,0,0.00,0.00,0,0,0,0,-8.8754072189,1.0117936134,-136.7382507324,124.9768371582,1026.37,17.96,0.0000000000,0.0000000000,0.0000000000
14,-86,446,20.06,1025.20,124.98,99.99,0,0,0,0,0.00,0.00,0,0,0,0,-8.8754072189,1.0117936134,-136.7382507324,124.9768371582,1026.37,17.95,0.0000000000,0.0000000000,0.0000000000
14,-86,448,20.07,1025.20,124.98,99.99,0,0,0,0,0.00,0.00,0,0,0,0,-8.8754072189,1.0117936134,-136.7382507324,124.9768371582,1026.37,17.99,0.0000000000,0.0000000000,0.0000000000
14,-86,449,20.08,1025.20,124.98,99.99,0,0,0,0,0.00,0.00,0,0,0,0,-8.8754072189,1.0117936134,-136.7382507324,124.9768371582,1026.40,17.95,0.0000000000,0.0000000000,0.0000000000
15,-84,450,20.07,1025.20,124.98,99.99,0,0,0,0,0.00,0.00,0,0,0,0,-8.8754072189,1.0117936134,-136.7382507324,124.9768371582,1026.34,17.95,0.0000000000,0.0000000000,0.0000000000
14,-86,451,20.08,1025.20,124.98,99.99,0,0,0,0,0.00,0.00,0,0,0,0,-8.8754072189,1.0117936134,-136.7382507324,124.9768371582,1026.37,17.95,0.0000000000,0.0000000000,0.0000000000
14,-86,453,20.09,1025.20,124.98,99.99,0,0,0,0,0.00,0.00,0,0,0,0,-8.8754072189,1.0117936134,-136.7382507324,124.9768371582,1026.36,18.01,0.0000000000,0.0000000000,0.0000000000
14,-88,454,20.08,1025.20,124.98,99.99,0,0,0,0,0.00,0.00,0,0,0,0,-8.8754072189,1.0117936134,-136.7382507324,124.9768371582,1026.38,17.99,0.0000000000,0.0000000000,0.0000000000
14,-85,455,20.09,1025.20,124.98,99.99,0,0,0,0,0.00,0.00,0,0,0,0,-8.8754072189,1.0117936134,-136.7382507324,124.9768371582,1026.41,17.98,0.0000000000,0.0000000000,0.0000000000
14,-86,456,20.09,1025.20,124.98,99.99,0,0,0,0,0.00,0.00,0,0,0,0,-8.8754072189,1.0117936134,-136.7382507324,124.9768371582,1026.37,17.97,0.0000000000,0.0000000000,0.0000000000
14,-85,458,20.10,1025.20,124.98,99.99,0,0,0,0,0.00,0.00,0,0,0,0,-8.8754072189,1.0117936134,-136.7382507324,124.9768371582,1026.39,18.02,0.0000000000,0.0000000000,0.0000000000
14,-85,459,20.11,1025.20,124.98,99.99,0,0,0,0,0.00,0.00,0,0,0,0,-8.8754072189,1.0117936134,-136.7382507324,124.9768371582,1026.35,17.99,0.0000000000,0.0000000000,0.0000000000
14,-85,460,20.11,1025.20,124.98,99.99,0,0,0,0,0.00,0.00,0,0,0,0,-8.8754072189,1.0117936134,-136.7382507324,124.9768371582,1026.38,17.98,0.0000000000,0.0000000000,0.0000000000
14,-84,461,20.12,1025.20,124.98,99.99,0,0,0,0,0.00,0.00,0,0,0,0,-8.8754072189,1.0117936134,-136.7382507324,124.9768371582,1026.36,17.98,0.0000000000,0.0000000000,0.0000000000
14,-86,463,20.13,1025.20,124.98,99.99,0,0,0,0,0.00,0.00,0,0,0,0,-8.8754072189,1.0117936134,-136.7382507324,124.9768371582,1026.35,18.05,0.0000000000,0.0000000000,0.0000000000
14,-86,464,20.12,1025.20,124.98,99.99,0,0,0,0,0.00,0.00,0,0,0,0,-8.8754072189,1.0117936134,-136.7382507324,124.9768371582,1026.33,18.04,0.0000000000,0.0000000000,0.0000000000
14,-86,465,20.14,1025.20,124.98,99.99,0,0,0,0,0.00,0.00,0,0,0,0,-8.8754072189,1.0117936134,-136.7382507324,124.9768371582,1026.36,18.03,0.0000000000,0.0000000000,0.0000000000
14,-86,466,20.13,1025.20,124.98,99.99,0,0,0,0,0.00,0.00,0,0,0,0,-8.8754072189,1.0117936134,-136.7382507324,124.9768371582,1026.33,18.03,0.0000000000,0.0000000000,0.0000000000
14,-86,468,20.14,1025.20,124.98,99.99,0,0,0,0,0.00,0.00,0,0,0,0,-8.8754072189,1.0117936134,-136.7382507324,124.9768371582,1026.33,18.07,0.0000000000,0.0000000000,0.0000000000
14,-86,469,20.15,1025.20,124.98,99.99,0,0,0,0,0.00,0.00,0,0,0,0,-8.8754072189,1.0117936134,-136.7382507324,124.9768371582,1026.39,18.02,0.0000000000,0.0000000000,0.0000000000
15,-85,470,20.15,1025.20,124.98,99.99,0,0,0,0,0.00,0.00,0,0,0,0,-8.8754072189,1.0117936134,-136.7382507324,124.9768371582,1026.36,18.00,0.0000000000,0.0000000000,0.0000000000
14,-86,471,20.16,1025.20,124.98,99.99,0,0,0,0,0.00,0.00,0,0,0,0,-8.8754072189,1.0117936134,-136.7382507324,124.9768371582,1026.35,17.98,0.0000000000,0.0000000000,0.0000000000
14,-86,473,20.16,1025.20,124.98,99.99,0,0,0,0,0.00,0.00,0,0,0,0,-8.8754072189,1.0117936134,-136.7382507324,124.9768371582,1026.38,18.03,0.0000000000,0.0000000000,0.0000000000
15,-86,474,20.16,1025.20,124.98,99.99,0,0,0,0,0.00,0.00,0,0,0,0,-8.8754072189,1.0117936134,-136.7382507324,124.9768371582,1026.34,18.00,0.0000000000,0.0000000000,0.0000000000
14,-84,475,20.17,1025.20,124.98,99.99,0,0,0,0,0.00,0.00,0,0,0,0,-8.8754072189,1.0117936134,-136.7382507324,124.9768371582,1026.37,17.99,0.0000000000,0.0000000000,0.0000000000
15,-85,476,20.16,1025.20,124.98,99.99,0,0,0,0,0.00,0.00,0,0,0,0,-8.8754072189,1.0117936134,-136.7382507324,124.9768371582,1026.36,17.97,0.0000000000,0.0000000000,0.0000000000
14,-86,478,20.17,1025.20,124.98,99.99,0,0,0,0,0.00,0.00,0,0,0,0,-8.8754072189,1.0117936134,-136.7382507324,124.9768371582,1026.35,18.02,0.0000000000,0.0000000000,0.0000000000
14,-86,479,20.18,1025.20,124.98,99.99,0,0,0,0,0.00,0.00,0,0,0,0,-8.8754072189,1.0117936134,-136.7382507324,124.9768371582,1026.37,17.99,0.0000000000,0.0000000000,0.0000000000
14,-85,480,20.18,1025.20,124.98,99.99,0,0,0,0,0.00,0.00,0,0,0,0,-8.8754072189,1.0117936134,-136.7382507324,124.9768371582,1026.37,17.98,0.0000000000,0.0000000000,0.0000000000
14,-86,481,20.19,1025.20,124.98,99.99,0,0,0,0,0.00,0.00,0,0,0,0,-8.8754072189,1.0117936134,-136.7382507324,124.9768371582,1026.39,17.97,0.0000000000,0.0000000000,0.0000000000
14,-85,483,20.19,1025.20,124.98,99.99,0,0,0,0,0.00,0.00,0,0,0,0,-8.8754072189,1.0117936134,-136.7382507324,124.9768371582,1026.40,18.02,0.0000000000,0.0000000000,0.0000000000
14,-85,484,20.19,1025.20,124.98,99.99,0,0,0,0,0.00,0.00,0,0,0,0,-8.8754072189,1.0117936134,-136.7382507324,124.9768371582,1026.40,17.99,0.0000000000,0.0000000000,0.0000000000
14,-85,485,20.21,1025.20,124.98,99.99,0,0,0,0,0.00,0.00,0,0,0,0,-8.8754072189,1.0117936134,-136.7382507324,124.9768371582,1026.41,17.98,0.0000000000,0.0000000000,0.0000000000
15,-86,486,20.20,1025.20,124.98,99.99,0,0,0,0,0.00,0.00,0,0,0,0,-8.8754072189,1.0117936134,-136.7382507324,124.9768371582,1026.38,17.98,0.0000000000,0.0000000000,0.0000000000
14,-86,488,20.21,1025.20,124.98,99.99,0,0,0,0,0.00,0.00,0,0,0,0,-8.8754072189,1.0117936134,-136.7382507324,124.9768371582,1026.39,18.03,0.0000000000,0.0000000000,0.0000000000
14,-86,489,20.22,1025.20,124.98,99.99,0,0,0,0,0.00,0.00,0,0,0,0,-8.8754072189,1.0117936134,-136.7382507324,124.9768371582,1026.40,18.00,0.0000000000,0.0000000000,0.0000000000
14,-86,490,20.22,1025.20,124.98,99.99,0,0,0,0,0.00,0.00,0,0,0,0,-8.8754072189,1.0117936134,-136.7382507324,124.9768371582,1026.37,17.98,0.0000000000,0.0000000000,0.0000000000
14,-85,491,20.23,1025.20,124.98,99.99,0,0,0,0,0.00,0.00,0,0,0,0,-8.8754072189,1.0117936134,-136.7382507324,124.9768371582,1026.37,17.97,0.0000000000,0.0000000000,0.0000000000
14,-85,493,20.24,1025.20,124.98,99.99,0,0,0,0,0.00,0.00,0,0,0,0,-8.8754072189,1.0117936134,-136.7382507324,124.9768371582,1026.38,18.02,0.0000000000,0.0000000000,0.0000000000
14,-85,494,20.23,1025.20,124.98,99.99,0,0,0,0,0.00,0.00,0,0,0,0,-8.8754072189,1.0117936134,-136.7382507324,124.9768371582,1026.38,18.00,0.0000000000,0.0000000000,0.0000000000
14,-86,495,20.25,1025.20,124.98,99.99,0,0,0,0,0.00,0.00,0,0,0,0,-8.8754072189,1.0117936134,-136.7382507324,124.9768371582,1026.37,17.99,0.0000000000,0.0000000000,0.0000000000
14,-86,496,20.25,1025.20,124.98,99.99,0,0,0,0,0.00,0.00,0,0,0,0,-8.8754072189,1.0117936134,-136.7382507324,124.9768371582,1026.37,17.98,0.0000000000,0.0000000000,0.0000000000
14,-86,498,20.26,1025.20,124.98,99.99,0,0,0,0,0.00,0.00,0,0,0,0,-8.8754072189,1.0117936134,-136.7382507324,124.9768371582,1026.37,18.03,0.0000000000,0.0000000000,0.0000000000
14,-86,499,20.27,1025.20,124.98,99.99,0,0,0,0,0.00,0.00,0,0,0,0,-8.8754072189,1.0117936134,-136.7382507324,124.9768371582,1026.41,18.01,0.0000000000,0.0000000000,0.0000000000
14,-86,500,20.27,1025.20,124.98,99.99,0,0,0,0,0.00,0.00,0,0,0,0,-8.8754072189,1.0117936134,-136.7382507324,124.9768371582,1026.39,18.00,0.0000000000,0.0000000000,0.0000000000
14,-85,501,20.28,1025.20,124.98,99.99,0,0,0,0,0.00,0.00,0,0,0,0,-8.8754072189,1.0117936134,-136.7382507324,124.9768371582,1026.38,18.00,0.0000000000,0.0000000000,0.0000000000
15,-86,503,20.29,1025.20,124.98,99.99,0,0,0,0,0.00,0.00,0,0,0,0,-8.8754072189,1.0117936134,-136.7382507324,124.9768371582,1026.37,18.06,0.0000000000,0.0000000000,0.0000000000
15,-84,504,20.28,1025.20,124.98,99.99,0,0,0,0,0.00,0.00,0,0,0,0,-8.8754072189,1.0117936134,-136.7382507324,124.9768371582,1026.38,18.05,0.0000000000,0.0000000000,0.0000000000
14,-85,505,20.29,1025.30,124.98,99.99,0,0,0,0,0.00,0.00,0,0,0,0,-8.8753862381,1.0118923187,-137.8771972656,124.9768371582,1026.38,18.05,0.0000000000,0.0000000000,0.0000000000
14,-86,506,20.29,1025.20,124.98,99.99,0,0,0,0,0.00,0.00,0,0,0,0,-8.8754072189,1.0117936134,-136.7382507324,124.9768371582,1026.40,18.05,0.0000000000,0.0000000000,0.0000000000
14,-86,508,20.29,1025.20,124.98,99.99,0,0,0,0,0.00,0.00,0,0,0,0,-8.8754072189,1.0117936134,-136.7382507324,124.9768371582,1026.40,18.13,0.0000000000,0.0000000000,0.0000000000
14,-86,509,20.30,1025.20,124.98,99.99,0,0,0,0,0.00,0.00,0,0,0,0,-8.8754072189,1.0117936134,-136.7382507324,124.9768371582,1026.40,18.12,0.0000000000,0.0000000000,0.0000000000
14,-86,510,20.30,1025.20,124.98,99.99,0,0,0,0,0.00,0.00,0,0,0,0,-8.8754072189,1.0117936134,-136.7382507324,124.9768371582,1026.35,18.11,0.0000000000,0.0000000000,0.0000000000
14,-86,511,20.31,1025.20,124.98,99.99,0,0,0,0,0.00,0.00,0,0,0,0,-8.8754072189,1.0117936134,-136.7382507324,124.9768371582,1026.37,18.11,0.0000000000,0.0000000000,0.0000000000
14,-86,513,20.32,1025.20,124.98,99.99,0,0,0,0,0.00,0.00,0,0,0,0,-8.8754072189,1.0117936134,-136.7382507324,124.9768371582,1026.37,18.18,0.0000000000,0.0000000000,0.0000000000
14,-86,514,20.31,1025.20,124.98,99.99,0,0,0,0,0.00,0.00,0,0,0,0,-8.8754072189,1.0117936134,-136.7382507324,124.9768371582,1026.36,18.16,0.0000000000,0.0000000000,0.0000000000
14,-85,515,20.32,1025.20,124.98,99.99,0,0,0,0,0.00,0.00,0,0,0,0,-8.8754072189,1.0117936134,-136.7382507324,124.9768371582,1026.36,18.14,0.0000000000,0.0000000000,0.0000000000
14,-88,516,20.32,1025.20,124.98,99.99,0,0,0,0,0.00,0.00,0,0,0,0,-8.8754072189,1.0117936134,-136.7382507324,124.9768371582,1026.38,18.13,0.0000000000,0.0000000000,0.0000000000
14,-88,518,20.33,1025.20,124.98,99.99,0,0,0,0,0.00,0.00,0,0,0,0,-8.8754072189,1.0117936134,-136.7382507324,124.9768371582,1026.36,18.19,0.0000000000,0.0000000000,0.0000000000
15,-85,519,20.34,1025.20,124.98,99.99,0,0,0,0,0.00,0.00,0,0,0,0,-8.8754072189,1.0117936134,-136.7382507324,124.9768371582,1026.35,18.17,0.0000000000,0.0000000000,0.0000000000
15,-85,520,20.33,1025.20,124.98,99.99,0,0,0,0,0.00,0.00,0,0,0,0,-8.8754072189,1.0117936134,-136.7382507324,124.9768371582,1026.36,18.17,0.0000000000,0.0000000000,0.0000000000
14,-85,521,20.35,1025.20,124.98,99.99,0,0,0,0,0.00,0.00,0,0,0,0,-8.8754072189,1.0117936134,-136.7382507324,124.9768371582,1026.36,18.17,0.0000000000,0.0000000000,0.0000000000
14,-86,523,20.35,1025.20,124.98,99.99,0,0,0,0,0.00,0.00,0,0,0,0,-8.8754072189,1.0117936134,-136.7382507324,124.9768371582,1026.37,18.23,0.0000000000,0.0000000000,0.0000000000
14,-86,524,20.35,1025.20,124.98,99.99,0,0,0,0,0.00,0.00,0,0,0,0,-8.8754072189,1.0117936134,-136.7382507324,124.9768371582,1026.35,18.21,0.0000000000,0.0000000000,0.0000000000
14,-85,525,20.36,1025.20,124.98,99.99,0,0,0,0,0.00,0.00,0,0,0,0,-8.8754072189,1.0117936134,-136.7382507324,124.9768371582,1026.37,18.20,0.0000000000,0.0000000000,0.0000000000
14,-86,526,20.36,1025.20,124.98,99.99,0,0,0,0,0.00,0.00,0,0,0,0,-8.8754072189,1.0117936134,-136.7382507324,124.9768371582,1026.37,18.23,0.0000000000,0.0000000000,0.0000000000
14,-85,528,20.36,1025.20,124.98,99.99,0,0,0,0,0.00,0.00,0,0,0,0,-8.8754072189,1.0117936134,-136.7382507324,124.9768371582,1026.38,18.33,0.0000000000,0.0000000000,0.0000000000
14,-85,529,20.37,1025.20,124.98,99.99,0,0,0,0,0.00,0.00,0,0,0,0,-8.8754072189,1.0117936134,-136.7382507324,124.9768371582,1026.38,18.30,0.0000000000,0.0000000000,0.0000000000
15,-85,530,20.37,1025.20,124.98,99.99,0,0,0,0,0.00,0.00,0,0,0,0,-8.8754072189,1.0117936134,-136.7382507324,124.9768371582,1026.37,18.28,0.0000000000,0.0000000000,0.0000000000
14,-85,531,20.38,1025.20,124.98,99.99,0,0,0,0,0.00,0.00,0,0,0,0,-8.8754072189,1.0117936134,-136.7382507324,124.9768371582,1026.40,18.28,0.0000000000,0.0000000000,0.0000000000
14,-86,533,20.39,1025.20,124.98,99.99,0,0,0,0,0.00,0.00,0,0,0,0,-8.8754072189,1.0117936134,-136.7382507324,124.9768371582,1026.40,18.31,0.0000000000,0.0000000000,0.0000000000
15,-86,534,20.38,1025.20,124.98,99.99,0,0,0,0,0.00,0.00,0,0,0,0,-8.8754072189,1.0117936134,-136.7382507324,124.9768371582,1026.35,18.28,0.0000000000,0.0000000000,0.0000000000
14,-86,535,20.40,1025.30,124.98,99.99,0,0,0,0,0.00,0.00,0,0,0,0,-8.8753862381,1.0118923187,-137.8771972656,124.9768371582,1026.34,18.27,0.0000000000,0.0000000000,0.0000000000
15,-86,536,20.40,1025.20,124.98,99.99,0,0,0,0,0.00,0.00,0,0,0,0,-8.8754072189,1.0117936134,-136.7382507324,124.9768371582,1026.39,18.27,0.0000000000,0.0000000000,0.0000000000
14,-85,538,20.41,1025.20,124.98,99.99,0,0,0,0,0.00,0.00,0,0,0,0,-8.8754072189,1.0117936134,-136.7382507324,124.9768371582,1026.36,18.32,0.0000000000,0.0000000000,0.0000000000
14,-86,539,20.42,1025.20,124.98,99.99,0,0,0,0,0.00,0.00,0,0,0,0,-8.8754072189,1.0117936134,-136.7382507324,124.9768371582,1026.38,18.29,0.0000000000,0.0000000000,0.0000000000
15,-84,540,20.42,1025.20,124.98,99.99,0,0,0,0,0.00,0.00,0,0,0,0,-8.8754072189,1.0117936134,-136.7382507324,124.9768371582,1026.32,18.28,0.0000000000,0.0000000000,0.0000000000
14,-85,541,20.43,1025.20,124.98,99.99,0,0,0,0,0.00,0.00,0,0,0,0,-8.8754072189,1.0117936134,-136.7382507324,124.9768371582,1026.33,18.26,0.0000000000,0.0000000000,0.0000000000
14,-86,543,20.44,1025.20,124.98,99.99,0,0,0,0,0.00,0.00,0,0,0,0,-8.8754072189,1.0117936134,-136.7382507324,124.9768371582,1026.36,18.29,0.0000000000,0.0000000000,0.0000000000
14,-86,544,20.44,1025.20,124.98,99.99,0,0,0,0,0.00,0.00,0,0,0,0,-8.8754072189,1.0117936134,-136.7382507324,124.9768371582,1026.36,18.27,0.0000000000,0.0000000000,0.0000000000
14,-85,545,20.45,1025.20,124.98,99.99,0,0,0,0,0.00,0.00,0,0,0,0,-8.8754072189,1.0117936134,-136.7382507324,124.9768371582,1026.31,18.25,0.0000000000,0.0000000000,0.0000000000
15,-85,546,20.45,1025.20,124.98,99.99,0,0,0,0,0.00,0.00,0,0,0,0,-8.8754072189,1.0117936134,-136.7382507324,124.9768371582,1026.35,18.25,0.0000000000,0.0000000000,0.0000000000
14,-86,548,20.46,1025.20,124.98,99.99,0,0,0,0,0.00,0.00,0,0,0,0,-8.8754072189,1.0117936134,-136.7382507324,124.9768371582,1026.37,18.31,0.0000000000,0.0000000000,0.0000000000
14,-86,549,20.47,1025.20,124.98,99.99,0,0,0,0,0.00,0.00,0,0,0,0,-8.8754072189,1.0117936134,-136.7382507324,124.9768371582,1026.33,18.29,0.0000000000,0.0000000000,0.0000000000
14,-88,550,20.46,1025.20,124.98,99.99,0,0,0,0,0.00,0.00,0,0,0,0,-8.8754072189,1.0117936134,-136.7382507324,124.9768371582,1026.36,18.28,0.0000000000,0.0000000000,0.0000000000
14,-85,551,20.47,1025.20,124.98,99.99,0,0,0,0,0.00,0.00,0,0,0,0,-8.8754072189,1.0117936134,-136.7382507324,124.9768371582,1026.37,18.28,0.0000000000,0.0000000000,0.0000000000
14,-86,553,20.48,1025.20,124.98,99.99,0,0,0,0,0.00,0.00,0,0,0,0,-8.8754072189,1.0117936134,-136.7382507324,124.9768371582,1026.34,18.33,0.0000000000,0.0000000000,0.0000000000
14,-86,554,20.47,1025.20,124.98,99.99,0,0,0,0,0.00,0.00,0,0,0,0,-8.8754072189,1.0117936134,-136.7382507324,124.9768371582,1026.34,18.31,0.0000000000,0.0000000000,0.0000000000
14,-86,555,20.49,1025.20,124.98,99.99,0,0,0,0,0.00,0.00,0,0,0,0,-8.8754072189,1.0117936134,-136.7382507324,124.9768371582,1026.35,18.31,0.0000000000,0.0000000000,0.0000000000
14,-86,556,20.48,1025.10,124.98,99.99,0,0,0,0,0.00,0.00,0,0,0,0,-8.8754272461,1.0116949081,-135.5992279053,124.9768371582,1026.36,18.30,0.0000000000,0.0000000000,0.0000000000
14,-85,558,20.49,1025.20,124.98,99.99,0,0,0,0,0.00,0.00,0,0,0,0,-8.8754072189,1.0117936134,-136.7382507324,124.9768371582,1026.32,18.37,0.0000000000,0.0000000000,0.0000000000
14,-86,559,20.50,1025.20,124.98,99.99,0,0,0,0,0.00,0.00,0,0,0,0,-8.8754072189,1.0117936134,-136.7382507324,124.9768371582,1026.36,18.34,0.0000000000,0.0000000000,0.0000000000
14,-86,560,20.49,1025.20,124.98,99.99,0,0,0,0,0.00,0.00,0,0,0,0,-8.8754072189,1.0117936134,-136.7382507324,124.9768371582,1026.36,18.34,0.0000000000,0.0000000000,0.0000000000
14,-86,561,20.51,1025.20,124.98,99.99,0,0,0,0,0.00,0.00,0,0,0,0,-8.8754072189,1.0117936134,-136.7382507324,124.9768371582,1026.34,18.33,0.0000000000,0.0000000000,0.0000000000
14,-85,563,20.51,1025.20,124.98,99.99,0,0,0,0,0.00,0.00,0,0,0,0,-8.8754072189,1.0117936134,-136.7382507324,124.9768371582,1026.37,18.40,0.0000000000,0.0000000000,0.0000000000
14,-86,564,20.50,1025.20,124.98,99.99,0,0,0,0,0.00,0.00,0,0,0,0,-8.8754072189,1.0117936134,-136.7382507324,124.9768371582,1026.29,18.38,0.0000000000,0.0000000000,0.0000000000
14,-85,565,20.52,1025.20,124.98,99.99,0,0,0,0,0.00,0.00,0,0,0,0,-8.8754072189,1.0117936134,-136.7382507324,124.9768371582,1026.29,18.36,0.0000000000,0.0000000000,0.0000000000
14,-85,566,20.51,1025.20,124.98,99.99,0,0,0,0,0.00,0.00,0,0,0,0,-8.8754072189,1.0117936134,-136.7382507324,124.9768371582,1026.31,18.37,0.0000000000,0.0000000000,0.0000000000
14,-84,568,20.52,1025.20,124.98,99.99,0,0,0,0,0.00,0.00,0,0,0,0,-8.8754072189,1.0117936134,-136.7382507324,124.9768371582,1026.33,18.41,0.0000000000,0.0000000000,0.0000000000
14,-84,569,20.53,1025.20,124.98,99.99,0,0,0,0,0.00,0.00,0,0,0,0,-8.8754072189,1.0117936134,-136.7382507324,124.9768371582,1026.28,18.39,0.0000000000,0.0000000000,0.0000000000
