SAMPLE NUMBER, INTERNAL TEMPERATURE, PRESSURE, EXTERNAL TEMPERATURE, HUMIDITY, TIME(HOURS), TIME(MINUTES), TIME(SECONDS), GPS FIX (SATS), LONGITUDE, LATITUDE, ALTITUDE, ACCELERATION IN X, ACCELERATION IN Y, ACCELERATION IN Z, ROTATION IN X, ROTATION IN Y, ROTATION IN Z, MAGNETIC FIELD STRENGTH IN X, MAGNETIC FIELD STRENGTH IN Y, MAGNETIC FIELD STRENGTH IN Z, HEADING, PITCH, ROLL
1,1929,101114,2666,841,0,0,0,0,0.00,0.00,0.00,0.02,0.09,0.99,0.09,3.82,1.08,0.19,-0.59,-0.60,170.96,-1.34,5.05
2,1930,101112,2663,844,0,0,0,0,0.00,0.00,0.00,0.02,0.08,1.02,0.43,2.09,0.91,0.19,-0.59,-0.60,170.84,-1.30,4.69
3,1928,101117,2657,847,0,0,0,0,0.00,0.00,0.00,0.02,0.09,1.03,0.52,2.06,1.08,0.18,-0.59,-0.61,171.28,-0.96,4.80
4,1925,101112,2657,863,0,0,0,0,0.00,0.00,0.00,0.02,0.09,1.02,0.49,2.15,0.86,0.19,-0.59,-0.59,171.05,-1.17,4.78
5,1925,101110,2656,871,0,0,0,0,0.00,0.00,0.00,0.01,0.09,1.02,0.25,2.15,0.95,0.19,-0.59,-0.60,170.82,-0.71,4.92
6,1924,101113,2656,849,0,0,0,0,0.00,0.00,0.00,0.10,0.09,1.00,-20.21,-5.06,28.61,0.13,-0.42,-0.58,171.79,-5.55,5.32
7,1924,101112,2656,1018,0,0,0,0,0.00,0.00,0.00,-0.17,-0.03,1.07,-5.23,-18.32,6.76,0.02,-0.09,-0.32,178.43,8.97,-1.57
8,1924,101113,2657,1256,0,0,0,0,0.00,0.00,0.00,0.14,-0.07,0.99,33.35,38.72,13.96,0.10,0.04,-0.42,77.38,-7.95,-3.94
9,1923,101114,2660,1818,0,0,0,0,0.00,0.00,0.00,0.15,-0.02,1.04,8.07,7.34,9.30,0.11,0.06,-0.43,70.50,-7.97,-1.31
10,1922,101109,2662,1725,0,0,0,0,0.00,0.00,0.00,-0.02,0.08,0.99,2.33,-16.52,-5.30,0.07,0.08,-0.41,51.60,1.11,4.50
11,1923,101111,2662,1411,0,0,0,0,0.00,0.00,0.00,-0.27,0.20,0.93,0.94,0.16,-1.51,-0.03,-0.00,-0.33,278.31,16.08,12.15
12,1922,101108,2659,1163,0,0,0,0,0.00,0.00,0.00,-0.43,0.27,0.91,-9.83,8.21,-4.90,-0.07,-0.01,-0.27,270.30,24.27,16.45
13,1918,101106,2663,1601,0,0,0,0,0.00,0.00,0.00,-0.13,0.16,1.02,12.31,7.52,-10.73,0.04,-0.01,-0.37,114.43,7.05,9.01
14,1917,101111,2666,2011,0,0,0,0,0.00,0.00,0.00,0.04,0.17,1.18,18.48,-18.50,-23.45,0.11,0.00,-0.41,97.62,-1.83,8.29
15,1916,101108,2664,1676,0,0,0,0,0.00,0.00,0.00,-0.01,0.26,0.89,-11.42,-19.01,-22.12,0.15,-0.09,-0.39,130.30,0.75,16.28
16,1916,101102,2664,1423,0,0,0,0,0.00,0.00,0.00,-0.04,0.26,1.03,-9.17,-39.01,-53.43,0.17,-0.16,-0.35,141.80,2.21,14.00
17,1917,101105,2663,1234,0,0,0,0,0.00,0.00,0.00,-0.20,0.41,0.94,-9.57,-11.63,-27.50,0.22,-0.25,-0.28,147.52,10.92,23.67
18,1917,101106,2662,1148,0,0,0,0,0.00,0.00,0.00,-0.13,0.44,0.74,22.20,-35.39,-25.84,0.31,-0.24,-0.30,136.11,8.38,30.95
19,1916,101106,2660,1079,0,0,0,0,0.00,0.00,0.00,0.02,0.44,0.95,-4.16,8.79,-0.46,0.37,-0.18,-0.34,124.69,-0.90,25.06
20,1910,101107,2657,1100,0,0,0,0,0.00,0.00,0.00,0.08,0.17,1.01,-35.10,16.02,-5.70,0.44,-0.11,-0.36,112.37,-4.27,9.59
21,1912,101107,2655,1037,0,0,0,0,0.00,0.00,0.00,0.02,-0.32,1.37,-15.88,28.04,-38.43,0.43,-0.03,-0.40,102.40,-0.90,-12.99
22,1917,101110,2652,968,0,0,0,0,0.00,0.00,0.00,0.18,0.24,0.83,81.70,32.80,73.86,0.51,-0.08,-0.36,107.63,-11.70,15.86
23,1918,101108,2648,891,0,0,0,0,0.00,0.00,0.00,0.14,-0.02,1.02,12.85,-17.66,-8.27,0.52,0.03,-0.39,94.91,-7.79,-1.31
24,1921,101110,2646,895,0,0,0,0,0.00,0.00,0.00,0.16,-0.09,1.14,1.00,13.25,-8.08,0.49,0.07,-0.42,90.87,-7.72,-4.43
25,1918,101109,2626,767,0,0,0,0,0.00,0.00,0.00,-0.07,0.12,1.18,54.04,-15.33,25.50,0.51,0.01,-0.44,97.31,3.51,5.66
26,1895,101114,2538,588,0,0,0,0,0.00,0.00,0.00,0.17,0.24,0.80,42.27,-56.88,-27.69,0.53,-0.05,-0.39,104.23,-11.35,16.48
27,1882,101114,2447,566,0,0,0,0,0.00,0.00,0.00,-0.23,-0.50,0.87,115.91,-33.50,-86.13,0.41,0.42,-0.32,52.70,12.83,-30.17
28,1853,101116,2394,596,0,0,0,0,0.00,0.00,0.00,-0.06,-0.11,1.01,1.54,2.67,1.18,0.45,0.17,-0.42,78.24,3.17,-6.36
29,1849,101116,2341,648,0,0,0,0,0.00,0.00,0.00,-0.03,-0.07,1.05,0.61,2.12,1.14,0.45,0.16,-0.43,79.18,1.78,-3.74
30,1813,101112,2298,725,0,0,0,0,0.00,0.00,0.00,-0.05,-0.10,1.02,0.53,2.05,1.23,0.46,0.16,-0.43,79.61,2.54,-5.55
31,1789,101112,2236,780,0,0,0,0,0.00,0.00,0.00,-0.04,-0.08,1.01,0.13,1.99,1.02,0.45,0.16,-0.42,78.75,2.31,-4.69
32,1745,101111,2186,820,0,0,0,0,0.00,0.00,0.00,-0.06,-0.17,1.15,-0.58,1.91,1.33,0.46,0.16,-0.43,78.96,3.17,-8.21
33,1725,101106,2128,881,0,0,0,0,0.00,0.00,0.00,-0.04,-0.09,1.01,0.37,2.03,1.09,0.45,0.16,-0.42,79.03,2.42,-5.13
34,2220,101112,2092,928,0,0,0,0,0.00,0.00,0.00,-0.01,-0.13,1.10,-2.67,1.70,1.19,0.45,0.16,-0.43,79.26,0.50,-6.63
35,2202,101111,2039,1011,0,0,0,0,0.00,0.00,0.00,-0.05,-0.09,1.01,-0.23,1.86,1.14,0.46,0.16,-0.43,79.23,2.57,-5.14
36,2197,101115,1999,1058,0,0,0,0,0.00,0.00,0.00,-0.05,-0.09,0.98,0.72,2.06,1.08,0.45,0.16,-0.43,78.92,3.10,-5.15
37,2195,101114,1955,1129,0,0,0,0,0.00,0.00,0.00,-0.05,-0.10,1.04,0.82,1.82,1.22,0.45,0.16,-0.44,79.47,2.66,-5.41
38,2187,101114,1924,1179,0,0,0,0,0.00,0.00,0.00,-0.05,-0.09,1.02,0.31,1.93,1.26,0.45,0.16,-0.42,78.99,2.56,-4.90
39,2180,101118,1892,1237,0,0,0,0,0.00,0.00,0.00,-0.05,-0.09,1.02,0.37,1.83,0.97,0.45,0.16,-0.43,79.00,2.63,-4.83
40,2164,101117,1870,1283,0,0,0,0,0.00,0.00,0.00,-0.05,-0.09,1.02,0.28,1.88,1.39,0.46,0.16,-0.43,79.86,2.57,-4.87
41,2153,101114,1829,1334,0,0,0,0,0.00,0.00,0.00,-0.05,-0.09,1.02,0.13,1.85,1.11,0.46,0.16,-0.42,79.80,2.56,-4.80
42,2135,101112,1796,1376,0,0,0,0,0.00,0.00,0.00,-0.05,-0.09,1.02,0.14,1.81,1.08,0.46,0.15,-0.43,80.20,2.59,-4.90
43,2128,101114,1750,1455,0,0,0,0,0.00,0.00,0.00,-0.04,-0.09,1.02,0.31,1.94,1.22,0.46,0.15,-0.43,79.90,2.51,-4.85
44,2103,101117,1725,1508,0,0,0,0,0.00,0.00,0.00,-0.05,-0.09,1.02,0.24,1.96,1.21,0.46,0.16,-0.43,79.70,2.64,-5.01
45,2082,101112,1703,1576,0,0,0,0,0.00,0.00,0.00,-0.05,-0.09,1.01,0.29,1.92,1.29,0.46,0.16,-0.43,79.08,2.71,-4.95
46,2040,101115,1679,1626,0,0,0,0,0.00,0.00,0.00,-0.05,-0.08,1.02,0.13,1.74,1.22,0.46,0.15,-0.44,79.97,2.69,-4.71
47,2033,101118,1647,1689,0,0,0,0,0.00,0.00,0.00,-0.05,-0.09,1.02,0.37,1.97,1.41,0.45,0.16,-0.43,79.37,2.73,-4.88
48,2013,101122,1626,1739,0,0,0,0,0.00,0.00,0.00,-0.05,-0.09,1.02,0.23,1.88,1.32,0.46,0.16,-0.42,79.70,2.73,-4.92
49,2005,101121,1598,1806,0,0,0,0,0.00,0.00,0.00,-0.04,-0.09,1.02,0.25,1.82,1.47,0.46,0.16,-0.43,79.67,2.45,-5.02
50,1979,101118,1584,1850,0,0,0,0,0.00,0.00,0.00,-0.04,-0.09,1.02,0.20,1.90,1.40,0.45,0.16,-0.43,79.72,2.45,-4.91
51,1963,101118,1559,1901,0,0,0,0,0.00,0.00,0.00,-0.05,-0.09,1.01,0.18,1.63,1.24,0.45,0.16,-0.43,79.44,2.57,-4.98
52,1919,101120,1545,1936,0,0,0,0,0.00,0.00,0.00,-0.05,-0.09,1.02,0.08,1.76,1.35,0.45,0.16,-0.43,79.43,2.74,-4.88
53,1904,101118,1529,1988,0,0,0,0,0.00,0.00,0.00,-0.05,-0.09,1.02,0.17,1.78,1.43,0.45,0.16,-0.42,79.33,2.60,-4.89
54,1908,101119,1514,2027,0,0,0,0,0.00,0.00,0.00,-0.05,-0.09,1.02,0.02,1.88,1.29,0.45,0.15,-0.43,79.89,2.65,-4.90
55,1910,101120,1500,2065,0,0,0,0,0.00,0.00,0.00,-0.04,-0.09,1.02,0.24,1.80,1.55,0.45,0.16,-0.42,79.36,2.48,-5.02
56,1911,101120,1493,2088,0,0,0,0,0.00,0.00,0.00,-0.05,-0.09,1.02,0.27,1.73,1.40,0.46,0.16,-0.43,79.84,2.70,-4.88
57,1906,101121,1487,2108,0,0,0,0,0.00,0.00,0.00,-0.05,-0.09,1.02,0.28,1.88,1.14,0.46,0.16,-0.43,79.56,2.73,-4.99
58,1894,101119,1478,2130,0,0,0,0,0.00,0.00,0.00,-0.05,-0.09,1.02,0.27,1.79,1.36,0.46,0.16,-0.44,79.40,2.80,-4.94
59,1891,101122,1470,2160,0,0,0,0,0.00,0.00,0.00,-0.05,-0.09,1.02,0.12,1.73,1.32,0.46,0.16,-0.44,79.71,2.67,-4.99
60,1866,101117,1462,2187,0,0,0,0,0.00,0.00,0.00,-0.04,-0.09,1.02,0.01,1.81,1.35,0.45,0.16,-0.43,79.25,2.44,-4.91
61,1852,101125,1452,2216,0,0,0,0,0.00,0.00,0.00,-0.05,-0.09,1.03,-0.11,1.75,1.22,0.46,0.16,-0.40,79.89,2.54,-5.01
62,1838,101120,1448,2242,0,0,0,0,0.00,0.00,0.00,-0.05,-0.09,1.03,0.19,1.80,1.58,0.46,0.15,-0.43,80.06,2.52,-5.00
63,1836,101118,1444,2270,0,0,0,0,0.00,0.00,0.00,-0.04,-0.09,1.02,0.38,1.64,1.35,0.45,0.15,-0.44,79.65,2.45,-4.96
64,1835,101122,1438,2294,0,0,0,0,0.00,0.00,0.00,-0.04,-0.09,1.03,0.25,3.81,1.33,0.46,0.15,-0.43,79.99,2.32,-4.91
65,1833,101119,1428,2324,0,0,0,0,0.00,0.00,0.00,-0.05,-0.09,1.03,0.05,1.70,1.58,0.45,0.15,-0.43,80.46,2.55,-4.93
66,1826,101118,1423,2346,0,0,0,0,0.00,0.00,0.00,-0.06,-0.09,1.03,0.12,1.65,1.54,0.46,0.15,-0.43,80.21,3.42,-4.90
67,1821,101119,1417,2376,0,0,0,0,0.00,0.00,0.00,-0.05,-0.09,1.02,0.04,1.76,1.43,0.46,0.16,-0.43,80.02,2.66,-4.96
68,1816,101117,1410,2397,0,0,0,0,0.00,0.00,0.00,-0.05,-0.09,1.03,-0.01,1.61,1.45,0.46,0.15,-0.43,80.11,2.58,-4.91
69,1812,101120,1409,2410,0,0,0,0,0.00,0.00,0.00,-0.04,-0.09,1.02,0.13,1.67,1.46,0.46,0.16,-0.43,79.77,2.50,-4.99
70,1789,101121,1404,2424,0,0,0,0,0.00,0.00,0.00,-0.05,-0.14,1.12,0.45,1.80,1.54,0.46,0.16,-0.44,79.41,2.44,-7.19
71,1784,101120,1400,2439,0,0,0,0,0.00,0.00,0.00,-0.05,-0.09,1.02,0.23,1.70,1.34,0.46,0.15,-0.44,80.26,2.57,-4.93
72,1772,101121,1397,2446,0,0,0,0,0.00,0.00,0.00,-0.05,-0.08,1.01,0.16,1.55,1.39,0.46,0.15,-0.44,80.15,2.81,-4.64
73,1756,101124,1391,2500,0,0,0,0,0.00,0.00,0.00,-0.06,-0.07,1.01,0.18,1.64,1.52,0.46,0.15,-0.43,80.21,3.29,-3.81
74,2237,101127,1386,2507,0,0,0,0,0.00,0.00,0.00,-0.00,-0.09,1.01,0.37,1.94,1.50,0.46,0.16,-0.43,79.32,0.28,-4.84
75,2227,101120,1383,2538,0,0,0,0,0.00,0.00,0.00,-0.04,-0.10,1.02,-2.36,0.49,1.57,0.46,0.16,-0.44,79.57,2.23,-5.70
76,2207,101123,1372,2523,0,0,0,0,0.00,0.00,0.00,-0.04,-0.09,1.03,-0.10,1.64,1.32,0.46,0.15,-0.43,80.46,2.43,-5.14
77,2201,101125,1357,2531,0,0,0,0,0.00,0.00,0.00,-0.05,-0.09,1.02,0.06,1.39,1.15,0.46,0.16,-0.43,79.24,2.70,-5.21
78,2206,101126,1355,2542,0,0,0,0,0.00,0.00,0.00,-0.05,-0.09,1.02,-0.04,1.65,1.40,0.46,0.15,-0.43,80.02,2.59,-5.12
79,2206,101122,1345,2550,0,0,0,0,0.00,0.00,0.00,-0.04,-0.09,1.02,0.14,1.70,1.46,0.46,0.16,-0.43,79.82,2.43,-5.11
80,2200,101123,1341,2563,0,0,0,0,0.00,0.00,0.00,-0.05,-0.09,1.03,0.14,1.59,1.49,0.47,0.16,-0.43,80.15,2.60,-5.11
81,2196,101125,1336,2583,0,0,0,0,0.00,0.00,0.00,-0.04,-0.09,1.02,-0.09,1.63,1.61,0.46,0.16,-0.43,79.67,2.47,-5.19
82,2174,101124,1332,2598,0,0,0,0,0.00,0.00,0.00,-0.05,-0.09,1.03,0.09,1.54,1.54,0.46,0.16,-0.43,79.86,2.51,-5.21
83,2174,101124,1330,2614,0,0,0,0,0.00,0.00,0.00,-0.05,-0.09,1.03,-0.01,1.64,1.59,0.46,0.15,-0.43,80.29,2.53,-5.09
84,2155,101125,1327,2623,0,0,0,0,0.00,0.00,0.00,-0.05,-0.09,1.02,-0.17,1.79,1.47,0.46,0.16,-0.43,79.71,2.60,-5.17
85,2150,101127,1318,2656,0,0,0,0,0.00,0.00,0.00,-0.05,-0.09,1.03,-0.07,1.51,1.43,0.46,0.16,-0.43,79.70,2.52,-5.04
86,2152,101125,1312,2689,0,0,0,0,0.00,0.00,0.00,-0.05,-0.09,1.03,-0.04,1.70,1.44,0.46,0.16,-0.43,79.95,2.73,-5.16
87,2147,101123,1310,2709,0,0,0,0,0.00,0.00,0.00,-0.05,-0.09,1.03,0.00,1.66,1.34,0.46,0.15,-0.44,80.00,2.50,-5.18
88,2131,101126,1314,2717,0,0,0,0,0.00,0.00,0.00,-0.05,-0.09,1.02,-0.14,1.53,1.77,0.46,0.16,-0.44,79.58,2.60,-5.14
89,2125,101124,1314,2734,0,0,0,0,0.00,0.00,0.00,-0.04,-0.09,1.02,-0.22,1.41,1.26,0.46,0.15,-0.45,80.20,2.46,-5.16
90,2130,101122,1317,2733,0,0,0,0,0.00,0.00,0.00,-0.04,-0.09,1.03,-0.04,1.61,1.59,0.46,0.16,-0.43,79.80,2.44,-5.08
91,2135,101122,1320,2733,0,0,0,0,0.00,0.00,0.00,-0.05,-0.09,1.03,-0.13,1.59,1.59,0.46,0.16,-0.44,79.89,2.60,-5.25
92,2138,101126,1323,2721,0,0,0,0,0.00,0.00,0.00,-0.05,-0.09,1.03,0.01,1.59,1.50,0.46,0.15,-0.43,80.81,2.56,-5.19
93,2139,101123,1323,2715,0,0,0,0,0.00,0.00,0.00,-0.04,-0.09,1.03,0.08,1.72,1.60,0.46,0.16,-0.43,79.35,2.48,-5.08
94,2145,101120,1321,2713,0,0,0,0,0.00,0.00,0.00,-0.04,-0.09,1.03,-0.16,1.56,1.59,0.46,0.16,-0.43,79.76,2.44,-5.22
95,2144,101122,1320,2719,0,0,0,0,0.00,0.00,0.00,-0.04,-0.09,1.03,-0.19,1.49,1.36,0.46,0.16,-0.43,79.80,2.46,-5.20
96,2147,101126,1318,2742,0,0,0,0,0.00,0.00,0.00,-0.05,-0.09,1.03,0.09,1.54,1.65,0.46,0.16,-0.43,79.88,2.66,-5.23
97,2144,101125,1314,2745,0,0,0,0,0.00,0.00,0.00,-0.05,-0.09,1.03,0.03,1.64,1.56,0.46,0.15,-0.44,80.39,2.61,-5.03
98,2146,101128,1309,2755,0,0,0,0,0.00,0.00,0.00,-0.05,-0.09,1.03,-0.01,1.53,1.61,0.46,0.16,-0.43,79.77,2.60,-5.19
99,2147,101124,1305,2760,0,0,0,0,0.00,0.00,0.00,-0.05,-0.09,1.03,-0.07,1.42,1.49,0.46,0.16,-0.44,79.57,2.61,-5.26
100,2149,101127,1296,2752,0,0,0,0,0.00,0.00,0.00,-0.04,-0.09,1.03,0.03,1.59,1.48,0.46,0.16,-0.44,79.59,2.36,-5.05
101,2146,101122,1283,2760,0,0,0,0,0.00,0.00,0.00,-0.04,-0.09,1.03,-0.17,1.45,1.56,0.46,0.15,-0.43,79.88,2.46,-5.16
102,2148,101126,1274,2780,0,0,0,0,0.00,0.00,0.00,-0.05,-0.09,1.03,-0.04,1.53,1.67,0.46,0.15,-0.43,80.07,2.60,-5.20
103,2149,101123,1270,2814,0,0,0,0,0.00,0.00,0.00,-0.05,-0.09,1.03,0.02,1.44,1.73,0.46,0.16,-0.43,79.67,2.51,-5.06
104,2145,101123,1265,2839,0,0,0,0,0.00,0.00,0.00,-0.04,-0.09,1.03,0.05,1.50,1.40,0.46,0.15,-0.43,80.68,2.49,-5.20
105,2141,101123,1246,2875,0,0,0,0,0.00,0.00,0.00,-0.04,-0.09,1.03,0.00,1.50,1.87,0.46,0.15,-0.44,79.95,2.43,-5.17
106,2142,101123,1235,2905,0,0,0,0,0.00,0.00,0.00,-0.05,-0.09,1.02,0.07,1.50,1.58,0.46,0.15,-0.43,80.21,2.55,-5.23
107,2142,101125,1222,2944,0,0,0,0,0.00,0.00,0.00,-0.04,-0.09,1.03,-0.25,1.53,1.64,0.46,0.15,-0.43,79.96,2.49,-5.09
108,2139,101127,1217,2972,0,0,0,0,0.00,0.00,0.00,-0.04,-0.09,1.03,-0.15,1.56,1.64,0.46,0.16,-0.43,79.69,2.44,-5.26
109,2136,101127,1203,3009,0,0,0,0,0.00,0.00,0.00,-0.05,-0.09,1.03,0.07,1.38,1.38,0.45,0.15,-0.43,80.38,2.52,-5.12
110,2128,101127,1189,3038,0,0,0,0,0.00,0.00,0.00,-0.05,-0.09,1.03,-0.04,1.70,1.33,0.46,0.15,-0.43,80.33,2.57,-5.07
111,2124,101129,1178,3084,0,0,0,0,0.00,0.00,0.00,-0.04,-0.09,1.03,-0.06,1.54,1.47,0.46,0.15,-0.43,80.09,2.48,-5.16
112,2117,101129,1174,3116,0,0,0,0,0.00,0.00,0.00,-0.04,-0.09,1.03,-0.04,1.42,1.63,0.46,0.15,-0.44,80.29,2.47,-5.10
113,2112,101124,1166,3145,0,0,0,0,0.00,0.00,0.00,-0.04,-0.09,1.03,0.06,1.46,1.67,0.46,0.15,-0.43,80.60,2.40,-5.26
114,2104,101129,1164,3160,0,0,0,0,0.00,0.00,0.00,-0.03,-0.09,1.03,0.05,1.57,1.42,0.46,0.15,-0.43,80.36,1.81,-5.15
115,2100,101130,1166,3182,0,0,0,0,0.00,0.00,0.00,-0.05,-0.09,1.03,-0.11,1.54,1.51,0.47,0.16,-0.44,80.15,2.61,-5.06
116,2086,101128,1167,3197,0,0,0,0,0.00,0.00,0.00,-0.05,-0.09,1.03,-0.04,1.47,1.68,0.46,0.15,-0.43,80.40,2.57,-5.12
117,2079,101128,1166,3206,0,0,0,0,0.00,0.00,0.00,-0.04,-0.09,1.03,-0.08,1.55,1.71,0.46,0.16,-0.43,79.87,2.29,-5.15
118,2081,101126,1162,3223,0,0,0,0,0.00,0.00,0.00,-0.05,-0.09,1.03,-0.07,1.48,1.57,0.46,0.15,-0.44,79.99,2.64,-5.12
119,2084,101128,1162,3240,0,0,0,0,0.00,0.00,0.00,-0.05,-0.09,1.03,-0.06,1.47,1.34,0.46,0.16,-0.43,80.04,2.61,-5.29
120,2085,101129,1162,3245,0,0,0,0,0.00,0.00,0.00,-0.05,-0.08,1.03,-0.06,1.41,1.26,0.46,0.16,-0.43,79.81,2.56,-4.41
121,2084,101126,1167,3238,0,0,0,0,0.00,0.00,0.00,-0.05,-0.09,1.03,0.04,1.56,1.44,0.46,0.15,-0.43,80.22,2.55,-5.14
122,2076,101127,1174,3226,0,0,0,0,0.00,0.00,0.00,-0.04,-0.09,1.03,-0.04,1.50,1.37,0.46,0.16,-0.43,79.55,2.34,-5.24
123,2074,101132,1188,3214,0,0,0,0,0.00,0.00,0.00,-0.05,-0.09,1.03,0.00,1.56,1.52,0.47,0.16,-0.43,79.88,2.52,-5.16
124,2061,101126,1192,3197,0,0,0,0,0.00,0.00,0.00,-0.05,-0.09,1.03,-0.13,1.53,1.65,0.47,0.16,-0.44,80.13,2.56,-5.11
125,2053,101125,1200,3179,0,0,0,0,0.00,0.00,0.00,-0.05,-0.09,1.03,-0.13,1.32,1.83,0.46,0.15,-0.43,80.36,2.55,-5.11
126,2038,101124,1203,3165,0,0,0,0,0.00,0.00,0.00,-0.05,-0.09,1.03,0.01,1.58,1.63,0.46,0.16,-0.44,79.75,2.59,-5.03
127,2032,101125,1207,3150,0,0,0,0,0.00,0.00,0.00,-0.05,-0.09,1.03,0.04,1.53,1.54,0.47,0.15,-0.44,80.56,2.62,-5.20
128,2030,101126,1210,3148,0,0,0,0,0.00,0.00,0.00,-0.04,-0.09,1.03,-0.16,1.40,1.56,0.46,0.14,-0.44,81.18,2.48,-5.14
129,2033,101127,1207,3145,0,0,0,0,0.00,0.00,0.00,-0.04,-0.09,1.02,-0.07,1.53,1.57,0.47,0.15,-0.43,80.88,2.47,-5.30
130,2027,101129,1207,3148,0,0,0,0,0.00,0.00,0.00,-0.04,-0.10,1.03,-0.08,1.49,1.43,0.47,0.15,-0.44,80.89,2.48,-5.30
131,2028,101127,1207,3167,0,0,0,0,0.00,0.00,0.00,-0.05,-0.09,1.03,-0.04,1.39,1.54,0.46,0.15,-0.43,80.52,2.51,-5.19
132,2036,101128,1202,3189,0,0,0,0,0.00,0.00,0.00,-0.05,-0.09,1.03,-0.40,1.63,1.56,0.46,0.15,-0.44,80.72,2.49,-5.19
133,2037,101129,1192,3201,0,0,0,0,0.00,0.00,0.00,-0.04,-0.09,1.03,-0.01,1.47,1.66,0.46,0.16,-0.44,79.82,2.48,-5.14
134,2037,101127,1185,3201,0,0,0,0,0.00,0.00,0.00,-0.04,-0.09,1.03,0.19,1.32,1.79,0.46,0.15,-0.44,80.54,2.47,-5.15
135,2037,101128,1173,3211,0,0,0,0,0.00,0.00,0.00,-0.04,-0.09,1.03,0.02,1.48,1.66,0.46,0.16,-0.44,79.66,2.49,-5.21
136,2037,101135,1166,3228,0,0,0,0,0.00,0.00,0.00,-0.04,-0.10,1.03,0.11,1.47,1.49,0.46,0.15,-0.44,80.57,2.43,-5.29
137,2033,101129,1167,3258,0,0,0,0,0.00,0.00,0.00,-0.05,-0.09,1.03,-0.13,1.56,1.55,0.47,0.16,-0.44,79.83,2.62,-5.08
138,2023,101128,1167,3272,0,0,0,0,0.00,0.00,0.00,-0.05,-0.09,1.03,-0.15,1.47,1.46,0.47,0.16,-0.44,79.86,2.59,-5.13
139,2020,101129,1170,3272,0,0,0,0,0.00,0.00,0.00,-0.05,-0.09,1.03,-0.17,1.49,1.67,0.46,0.16,-0.44,79.94,2.65,-5.05
140,2019,101128,1171,3272,0,0,0,0,0.00,0.00,0.00,-0.05,-0.09,1.03,-0.07,1.41,1.63,0.46,0.15,-0.43,80.37,2.68,-5.20
141,2017,101125,1174,3265,0,0,0,0,0.00,0.00,0.00,-0.05,-0.09,1.03,-0.08,1.52,1.55,0.46,0.15,-0.44,80.42,2.52,-5.16
142,2000,101130,1175,3260,0,0,0,0,0.00,0.00,0.00,-0.04,-0.09,1.03,0.01,1.50,1.61,0.46,0.15,-0.44,80.23,2.49,-5.16
143,1998,101129,1182,3250,0,0,0,0,0.00,0.00,0.00,-0.05,-0.09,1.03,1.88,1.56,1.53,0.47,0.15,-0.44,80.70,2.53,-5.10
144,1989,101128,1182,3243,0,0,0,0,0.00,0.00,0.00,-0.05,-0.09,1.03,-0.14,1.48,1.26,0.46,0.16,-0.44,79.59,2.59,-5.24
145,1981,101126,1182,3238,0,0,0,0,0.00,0.00,0.00,-0.04,-0.09,1.03,-0.14,1.50,1.62,0.46,0.15,-0.45,80.35,2.41,-5.16
146,1971,101127,1182,3236,0,0,0,0,0.00,0.00,0.00,-0.05,-0.09,1.03,-0.07,1.67,1.67,0.46,0.15,-0.44,80.60,2.67,-5.16
147,1967,101123,1182,3236,0,0,0,0,0.00,0.00,0.00,-0.04,-0.09,1.03,0.08,1.42,1.52,0.46,0.15,-0.45,80.34,2.42,-5.22
148,1964,101125,1181,3233,0,0,0,0,0.00,0.00,0.00,-0.05,-0.10,1.03,-0.47,1.57,1.69,0.46,0.15,-0.44,80.97,2.53,-5.28
149,1966,101128,1177,3245,0,0,0,0,0.00,0.00,0.00,-0.05,-0.09,1.03,-0.10,1.59,1.47,0.46,0.15,-0.44,80.73,2.57,-5.10
150,1969,101123,1174,3245,0,0,0,0,0.00,0.00,0.00,-0.05,-0.09,1.03,-0.11,1.60,1.82,0.46,0.15,-0.44,80.52,2.57,-5.13
151,1964,101121,1175,3248,0,0,0,0,0.00,0.00,0.00,-0.04,-0.09,1.03,0.04,1.67,1.61,0.46,0.15,-0.44,80.18,2.46,-5.00
152,1950,101128,1180,3243,0,0,0,0,0.00,0.00,0.00,-0.04,-0.09,1.02,0.07,1.57,1.61,0.46,0.15,-0.43,80.45,2.43,-5.16
153,1937,101123,1174,3233,0,0,0,0,0.00,0.00,0.00,-0.04,-0.09,1.03,0.05,1.47,1.45,0.46,0.15,-0.44,80.39,2.45,-5.23
154,1933,101124,1173,3231,0,0,0,0,0.00,0.00,0.00,-0.04,-0.09,1.03,-0.19,1.26,1.77,0.46,0.15,-0.45,80.50,2.46,-5.17
155,1938,101125,1173,3236,0,0,0,0,0.00,0.00,0.00,-0.05,-0.09,1.03,-0.07,1.57,1.64,0.46,0.15,-0.43,80.01,2.52,-5.10
156,1952,101125,1171,3240,0,0,0,0,0.00,0.00,0.00,-0.05,-0.09,1.03,-0.19,1.52,1.60,0.46,0.15,-0.44,80.19,2.61,-5.07
157,1953,101123,1170,3243,0,0,0,0,0.00,0.00,0.00,-0.05,-0.09,1.03,-0.01,1.34,1.84,0.46,0.16,-0.44,80.06,2.57,-5.18
158,1960,101133,1169,3245,0,0,0,0,0.00,0.00,0.00,-0.05,-0.09,1.03,0.06,1.71,1.79,0.46,0.15,-0.44,80.47,2.53,-5.16
159,1962,101128,1173,3253,0,0,0,0,0.00,0.00,0.00,-0.05,-0.09,1.05,-0.26,1.12,1.67,0.47,0.15,-0.44,80.78,2.52,-5.10
160,1966,101126,1170,3253,0,0,0,0,0.00,0.00,0.00,-0.04,-0.09,1.03,0.06,1.59,1.53,0.46,0.16,-0.44,79.82,2.39,-5.05
161,1966,101129,1169,3255,0,0,0,0,0.00,0.00,0.00,-0.05,-0.09,1.03,0.09,1.29,1.54,0.45,0.15,-0.44,80.22,2.72,-5.25
162,1968,101127,1170,3253,0,0,0,0,0.00,0.00,0.00,-0.05,-0.09,1.03,0.11,1.35,1.59,0.46,0.16,-0.43,79.81,2.54,-5.22
163,1969,101126,1171,3253,0,0,0,0,0.00,0.00,0.00,-0.05,-0.09,1.03,-0.24,1.56,1.44,0.46,0.15,-0.44,80.24,2.63,-5.20
164,1974,101129,1173,3248,0,0,0,0,0.00,0.00,0.00,-0.05,-0.09,1.03,0.01,1.27,1.64,0.46,0.15,-0.44,80.82,2.50,-5.05
165,1975,101129,1178,3240,0,0,0,0,0.00,0.00,0.00,-0.05,-0.09,1.03,0.03,1.31,1.38,0.46,0.15,-0.44,80.77,2.61,-5.14
166,1978,101127,1181,3236,0,0,0,0,0.00,0.00,0.00,-0.05,-0.09,1.03,0.01,1.35,1.68,0.46,0.15,-0.45,80.30,2.57,-5.22
167,1978,101129,1184,3221,0,0,0,0,0.00,0.00,0.00,-0.04,-0.09,1.03,-0.01,1.67,1.63,0.46,0.15,-0.44,80.65,2.28,-5.01
168,1974,101126,1189,3209,0,0,0,0,0.00,0.00,0.00,-0.04,-0.09,1.03,0.04,1.56,1.77,0.46,0.15,-0.44,80.17,2.46,-5.08
169,1969,101123,1196,3201,0,0,0,0,0.00,0.00,0.00,-0.05,-0.09,1.03,-0.14,1.63,1.79,0.46,0.15,-0.44,80.26,2.53,-5.20
170,1961,101131,1200,3189,0,0,0,0,0.00,0.00,0.00,-0.05,-0.09,1.04,-0.14,1.44,1.67,0.46,0.15,-0.43,80.33,2.55,-5.18
171,1958,101129,1210,3155,0,0,0,0,0.00,0.00,0.00,-0.05,-0.09,1.03,-0.33,1.31,1.76,0.46,0.15,-0.45,80.70,2.58,-5.10
172,1960,101126,1217,3133,0,0,0,0,0.00,0.00,0.00,-0.05,-0.09,1.03,-0.11,1.43,1.61,0.46,0.15,-0.44,80.24,2.57,-5.18
173,1960,101127,1226,3114,0,0,0,0,0.00,0.00,0.00,-0.05,-0.09,1.03,-0.25,1.35,1.70,0.46,0.15,-0.44,80.99,2.58,-5.13
174,1965,101128,1230,3104,0,0,0,0,0.00,0.00,0.00,-0.05,-0.09,1.03,-0.24,1.42,1.64,0.46,0.15,-0.44,80.89,2.68,-5.15
175,1964,101126,1233,3084,0,0,0,0,0.00,0.00,0.00,-0.05,-0.09,1.04,-0.31,1.28,1.83,0.47,0.14,-0.44,81.58,2.52,-5.13
176,1967,101126,1239,3070,0,0,0,0,0.00,0.00,0.00,-0.04,-0.09,1.04,-0.16,1.29,1.54,0.46,0.15,-0.44,80.64,2.40,-5.23
177,1967,101129,1244,3045,0,0,0,0,0.00,0.00,0.00,-0.04,-0.09,1.03,0.06,1.51,1.56,0.46,0.15,-0.45,80.72,2.45,-5.11
178,1967,101129,1243,3035,0,0,0,0,0.00,0.00,0.00,-0.05,-0.09,1.03,-0.07,1.39,1.63,0.47,0.15,-0.44,80.65,2.71,-5.14
179,1966,101128,1243,3033,0,0,0,0,0.00,0.00,0.00,-0.04,-0.09,1.03,-0.10,1.43,1.73,0.46,0.15,-0.45,80.34,2.45,-5.16
180,1967,101125,1241,3033,0,0,0,0,0.00,0.00,0.00,-0.05,-0.09,1.04,-0.12,1.42,1.75,0.47,0.15,-0.45,80.80,2.58,-5.07
181,1968,101127,1241,3026,0,0,0,0,0.00,0.00,0.00,-0.05,-0.09,1.03,-0.22,1.56,1.51,0.47,0.15,-0.44,80.39,2.50,-5.16
182,1970,101128,1244,3021,0,0,0,0,0.00,0.00,0.00,-0.05,-0.10,1.03,-0.04,1.35,1.47,0.46,0.15,-0.44,80.56,2.52,-5.28
183,1971,101123,1241,3033,0,0,0,0,0.00,0.00,0.00,-0.04,-0.09,1.03,-0.22,1.40,1.56,0.46,0.15,-0.45,80.41,2.35,-5.21
184,1973,101126,1240,3050,0,0,0,0,0.00,0.00,0.00,-0.05,-0.09,1.03,-0.17,1.44,1.82,0.46,0.15,-0.43,80.47,2.63,-5.15
185,1973,101127,1240,3050,0,0,0,0,0.00,0.00,0.00,-0.04,-0.09,1.03,0.03,1.29,1.79,0.46,0.16,-0.45,79.65,2.48,-5.23
186,1974,101130,1240,3038,0,0,0,0,0.00,0.00,0.00,-0.04,-0.09,1.03,-0.04,1.39,1.61,0.47,0.15,-0.44,80.75,2.46,-5.09
187,1973,101127,1241,3033,0,0,0,0,0.00,0.00,0.00,-0.05,-0.09,1.03,-0.08,1.46,1.56,0.47,0.15,-0.44,80.73,2.60,-5.12
188,1975,101129,1241,3035,0,0,0,0,0.00,0.00,0.00,-0.04,-0.09,1.03,0.01,1.33,1.66,0.46,0.15,-0.44,80.90,2.45,-5.14
189,1974,101130,1246,3016,0,0,0,0,0.00,0.00,0.00,-0.05,-0.09,1.03,-0.01,1.47,1.58,0.46,0.15,-0.43,80.62,2.49,-5.20
190,1971,101127,1246,3011,0,0,0,0,0.00,0.00,0.00,-0.05,-0.09,1.03,-0.08,1.41,1.64,0.46,0.15,-0.44,80.60,2.53,-5.11
191,1970,101127,1250,2999,0,0,0,0,0.00,0.00,0.00,-0.04,-0.09,1.03,-0.07,1.57,1.49,0.46,0.15,-0.44,80.65,2.48,-5.07
192,1970,101128,1247,2994,0,0,0,0,0.00,0.00,0.00,-0.05,-0.09,1.03,-0.20,1.27,1.63,0.47,0.14,-0.45,81.32,2.56,-5.15
193,1968,101126,1247,2996,0,0,0,0,0.00,0.00,0.00,-0.03,-0.09,1.03,-0.07,1.53,1.50,0.46,0.15,-0.44,80.56,1.83,-5.24
194,1965,101129,1248,2999,0,0,0,0,0.00,0.00,0.00,-0.05,-0.09,1.03,-0.20,1.59,1.62,0.47,0.15,-0.44,80.95,2.54,-5.16
195,1963,101126,1251,2994,0,0,0,0,0.00,0.00,0.00,-0.05,-0.09,1.03,-0.22,1.50,1.58,0.47,0.16,-0.44,79.90,2.55,-5.06
196,1965,101127,1251,2988,0,0,0,0,0.00,0.00,0.00,-0.05,-0.09,1.03,-0.13,1.31,1.62,0.46,0.15,-0.45,80.46,2.55,-5.17
197,1966,101130,1248,2993,0,0,0,0,0.00,0.00,0.00,-0.05,-0.09,1.03,-0.08,1.29,1.67,0.47,0.16,-0.44,80.04,2.49,-5.18
198,1963,101126,1250,2988,0,0,0,0,0.00,0.00,0.00,-0.04,-0.09,1.03,-0.25,1.44,1.97,0.46,0.16,-0.44,79.69,2.30,-5.13
199,1958,101131,1252,2978,0,0,0,0,0.00,0.00,0.00,-0.04,-0.09,1.03,-0.04,1.42,1.67,0.47,0.16,-0.45,79.75,2.49,-5.10
200,1957,101125,1254,2974,0,0,0,0,0.00,0.00,0.00,-0.04,-0.09,1.03,-0.04,1.41,1.75,0.46,0.16,-0.44,79.83,2.34,-5.08
201,1956,101130,1257,2970,0,0,0,0,0.00,0.00,0.00,-0.05,-0.09,1.04,-0.10,1.27,1.81,0.47,0.15,-0.44,80.35,2.51,-5.13
202,1952,101126,1259,2956,0,0,0,0,0.00,0.00,0.00,-0.05,-0.09,1.03,-0.27,1.41,1.62,0.47,0.15,-0.44,80.73,2.56,-5.19
203,1952,101126,1263,2948,0,0,0,0,0.00,0.00,0.00,-0.04,-0.09,1.03,-0.15,1.49,1.45,0.47,0.16,-0.43,80.08,2.48,-5.16
204,1957,101127,1263,2946,0,0,0,0,0.00,0.00,0.00,-0.05,-0.09,1.03,-0.15,1.47,1.82,0.47,0.15,-0.44,80.56,2.65,-5.18
205,1958,101124,1259,2960,0,0,0,0,0.00,0.00,0.00,-0.05,-0.09,1.03,-0.31,1.44,1.52,0.47,0.15,-0.45,80.58,2.55,-5.18
206,1960,101126,1258,2968,0,0,0,0,0.00,0.00,0.00,-0.04,-0.09,1.03,-0.12,1.43,1.72,0.47,0.16,-0.43,80.14,2.48,-5.20
207,1959,101123,1261,2962,0,0,0,0,0.00,0.00,0.00,-0.05,-0.09,1.03,0.10,1.37,1.61,0.47,0.15,-0.44,80.89,2.61,-5.22
208,1959,101127,1265,2956,0,0,0,0,0.00,0.00,0.00,-0.05,-0.09,1.03,-0.31,1.40,1.59,0.47,0.15,-0.45,81.09,2.52,-5.18
209,1959,101127,1269,2948,0,0,0,0,0.00,0.00,0.00,-0.05,-0.09,1.03,-0.25,1.45,1.65,0.47,0.15,-0.44,80.58,2.66,-5.13
210,1962,101127,1269,2956,0,0,0,0,0.00,0.00,0.00,-0.05,-0.09,1.03,-0.15,1.50,1.64,0.46,0.15,-0.45,80.29,2.57,-5.10
211,1962,101125,1265,2978,0,0,0,0,0.00,0.00,0.00,-0.05,-0.10,1.04,-0.08,1.32,1.69,0.46,0.15,-0.44,80.30,2.49,-5.29
212,1959,101128,1261,2984,0,0,0,0,0.00,0.00,0.00,-0.04,-0.09,1.03,-0.01,1.33,1.68,0.46,0.15,-0.44,80.54,2.38,-5.11
213,1957,101123,1259,2994,0,0,0,0,0.00,0.00,0.00,-0.04,-0.09,1.04,-0.15,1.50,1.55,0.46,0.15,-0.44,80.93,2.40,-5.10
214,1954,101129,1259,2994,0,0,0,0,0.00,0.00,0.00,-0.04,-0.09,1.04,-0.17,1.26,1.74,0.47,0.15,-0.44,80.50,2.35,-5.07
215,1953,101125,1258,3004,0,0,0,0,0.00,0.00,0.00,-0.05,-0.09,1.03,-0.13,1.36,1.67,0.47,0.16,-0.45,80.10,2.52,-5.23
216,1957,101128,1258,3004,0,0,0,0,0.00,0.00,0.00,-0.05,-0.09,1.03,-0.20,1.38,1.67,0.46,0.15,-0.44,80.98,2.52,-5.16
217,1957,101127,1259,3009,0,0,0,0,0.00,0.00,0.00,-0.04,-0.09,1.03,-0.28,1.32,1.61,0.46,0.15,-0.44,80.22,2.44,-5.07
218,1953,101126,1259,3006,0,0,0,0,0.00,0.00,0.00,-0.04,-0.09,1.04,-0.02,1.31,1.47,0.47,0.15,-0.44,80.46,2.44,-5.10
219,1950,101129,1263,3001,0,0,0,0,0.00,0.00,0.00,-0.05,-0.09,1.03,0.18,1.53,1.73,0.46,0.15,-0.43,80.76,2.66,-5.08
220,1950,101125,1263,2994,0,0,0,0,0.00,0.00,0.00,-0.05,-0.09,1.04,-0.34,1.46,1.54,0.46,0.15,-0.43,80.37,2.54,-5.15
221,1951,101124,1266,2984,0,0,0,0,0.00,0.00,0.00,-0.04,-0.09,1.03,-0.04,1.51,1.84,0.46,0.15,-0.44,80.70,2.43,-5.15
222,1954,101127,1266,2990,0,0,0,0,0.00,0.00,0.00,-0.05,-0.09,1.03,-0.10,1.49,1.70,0.46,0.15,-0.43,80.88,2.50,-5.13
223,1954,101128,1267,2994,0,0,0,0,0.00,0.00,0.00,-0.05,-0.09,1.03,-0.37,1.58,1.60,0.46,0.15,-0.43,80.62,2.52,-5.12
224,1954,101124,1267,2990,0,0,0,0,0.00,0.00,0.00,-0.05,-0.09,1.03,-0.13,1.31,1.69,0.46,0.15,-0.44,80.71,2.62,-5.16
225,1953,101126,1269,2999,0,0,0,0,0.00,0.00,0.00,-0.05,-0.09,1.03,-0.25,1.30,1.65,0.46,0.15,-0.44,80.85,2.77,-5.13
226,1955,101130,1269,2999,0,0,0,0,0.00,0.00,0.00,-0.03,-0.09,1.03,0.00,1.50,1.40,0.46,0.15,-0.44,80.72,1.82,-5.09
227,1954,101127,1269,2990,0,0,0,0,0.00,0.00,0.00,-0.05,-0.09,1.03,-0.22,1.43,1.52,0.46,0.15,-0.44,80.36,2.50,-5.04
228,1950,101126,1269,2988,0,0,0,0,0.00,0.00,0.00,-0.04,-0.09,1.04,-0.10,1.28,1.73,0.46,0.14,-0.44,81.08,2.47,-5.09
229,1948,101126,1265,2990,0,0,0,0,0.00,0.00,0.00,-0.05,-0.09,1.03,0.13,1.53,1.51,0.46,0.16,-0.44,79.89,2.49,-5.13
230,1946,101125,1267,2978,0,0,0,0,0.00,0.00,0.00,-0.05,-0.09,1.03,-0.20,1.48,1.59,0.46,0.15,-0.44,80.16,2.52,-5.24
231,1946,101124,1269,2974,0,0,0,0,0.00,0.00,0.00,-0.05,-0.09,1.03,-0.13,1.37,1.82,0.46,0.15,-0.43,79.90,2.56,-5.11
232,1947,101123,1266,2984,0,0,0,0,0.00,0.00,0.00,-0.05,-0.09,1.03,0.00,1.38,1.71,0.46,0.16,-0.44,79.55,2.52,-5.19
233,1946,101125,1255,3011,0,0,0,0,0.00,0.00,0.00,-0.05,-0.08,1.03,-0.13,1.63,1.82,0.46,0.15,-0.43,80.38,2.49,-4.35
234,1948,101124,1248,3033,0,0,0,0,0.00,0.00,0.00,-0.04,-0.09,1.04,0.10,1.38,1.58,0.46,0.15,-0.43,80.18,2.39,-5.14
235,1948,101126,1240,3045,0,0,0,0,0.00,0.00,0.00,-0.04,-0.09,1.03,-0.18,1.42,1.73,0.46,0.15,-0.45,80.35,2.37,-5.09
236,1949,101124,1235,3060,0,0,0,0,0.00,0.00,0.00,-0.04,-0.09,1.03,-0.10,1.38,1.89,0.46,0.15,-0.43,79.93,2.45,-5.15
237,1948,101127,1229,3072,0,0,0,0,0.00,0.00,0.00,-0.05,-0.09,1.03,-0.13,1.25,1.67,0.46,0.16,-0.44,79.95,2.53,-5.17
238,1943,101129,1226,3084,0,0,0,0,0.00,0.00,0.00,-0.04,-0.10,1.03,-0.19,1.42,1.47,0.46,0.16,-0.43,79.73,2.43,-5.27
239,1941,101125,1220,3109,0,0,0,0,0.00,0.00,0.00,-0.04,-0.09,1.03,-0.08,1.39,1.88,0.46,0.16,-0.44,79.85,2.47,-5.03
240,1940,101124,1217,3126,0,0,0,0,0.00,0.00,0.00,-0.04,-0.09,1.03,-0.11,1.28,1.68,0.46,0.15,-0.44,80.52,2.37,-5.10
241,1938,101129,1216,3128,0,0,0,0,0.00,0.00,0.00,-0.06,-0.09,1.03,-0.23,1.22,1.53,0.47,0.15,-0.43,81.03,3.43,-5.15
242,1935,101128,1218,3131,0,0,0,0,0.00,0.00,0.00,-0.04,-0.09,1.03,-0.10,1.41,1.63,0.47,0.15,-0.43,80.92,2.41,-5.24
243,1933,101126,1218,3138,0,0,0,0,0.00,0.00,0.00,-0.04,-0.09,1.03,-0.04,1.41,1.64,0.46,0.15,-0.44,80.86,2.43,-5.08
244,1932,101125,1217,3138,0,0,0,0,0.00,0.00,0.00,-0.05,-0.09,1.03,-0.31,1.41,1.48,0.46,0.14,-0.43,81.24,2.59,-5.16
245,1927,101128,1218,3138,0,0,0,0,0.00,0.00,0.00,-0.05,-0.09,1.03,-0.02,1.50,1.48,0.46,0.15,-0.44,80.76,2.52,-5.04
246,1924,101125,1218,3145,0,0,0,0,0.00,0.00,0.00,-0.05,-0.09,1.03,-0.21,1.56,1.81,0.46,0.15,-0.44,80.52,2.61,-5.08
247,1925,101124,1214,3165,0,0,0,0,0.00,0.00,0.00,-0.05,-0.09,1.03,-0.14,1.52,1.94,0.46,0.15,-0.43,80.41,2.48,-5.05
248,1928,101128,1210,3179,0,0,0,0,0.00,0.00,0.00,-0.04,-0.09,1.03,0.01,1.46,1.54,0.46,0.15,-0.43,80.76,2.48,-5.15
249,1928,101129,1207,3197,0,0,0,0,0.00,0.00,0.00,-0.05,-0.09,1.03,-0.19,1.48,1.62,0.47,0.15,-0.44,80.65,2.52,-5.18
250,1929,101126,1209,3197,0,0,0,0,0.00,0.00,0.00,-0.04,-0.09,1.02,-0.14,1.35,1.76,0.46,0.16,-0.43,80.04,2.47,-5.09
251,1928,101128,1204,3194,0,0,0,0,0.00,0.00,0.00,-0.05,-0.09,1.03,-0.13,1.38,1.40,0.47,0.16,-0.44,80.10,2.54,-5.06
252,1928,101128,1199,3209,0,0,0,0,0.00,0.00,0.00,-0.05,-0.09,1.04,-0.14,1.52,1.56,0.46,0.16,-0.44,80.06,2.52,-5.13
253,1928,101128,1195,3236,0,0,0,0,0.00,0.00,0.00,-0.04,-0.09,1.03,0.03,1.37,1.70,0.46,0.15,-0.45,80.07,2.33,-5.07
254,1928,101128,1189,3253,0,0,0,0,0.00,0.00,0.00,-0.04,-0.09,1.03,-0.07,1.53,1.49,0.46,0.15,-0.44,80.54,2.41,-5.11
255,1925,101129,1185,3275,0,0,0,0,0.00,0.00,0.00,-0.05,-0.09,1.03,-0.13,1.32,1.50,0.47,0.15,-0.44,80.35,2.53,-5.23
256,1914,101129,1185,3277,0,0,0,0,0.00,0.00,0.00,-0.05,-0.09,1.03,-0.07,1.48,1.67,0.47,0.15,-0.44,80.56,2.53,-5.10
257,1908,101126,1188,3267,0,0,0,0,0.00,0.00,0.00,-0.05,-0.09,1.03,-0.22,1.47,1.70,0.47,0.15,-0.45,81.22,2.49,-5.20
258,1897,101122,1188,3270,0,0,0,0,0.00,0.00,0.00,-0.05,-0.09,1.04,-0.13,1.56,1.59,0.46,0.15,-0.44,80.47,2.53,-5.12
259,1894,101125,1189,3265,0,0,0,0,0.00,0.00,0.00,-0.04,-0.09,1.03,-0.19,1.56,1.76,0.46,0.15,-0.44,80.45,2.43,-5.17
260,1889,101127,1188,3255,0,0,0,0,0.00,0.00,0.00,-0.04,-0.09,1.04,-0.29,1.56,1.79,0.46,0.15,-0.44,80.02,2.30,-5.06
261,1888,101128,1191,3253,0,0,0,0,0.00,0.00,0.00,-0.04,-0.09,1.04,-0.07,1.46,1.78,0.46,0.15,-0.44,80.32,2.40,-5.10
262,1890,101127,1189,3262,0,0,0,0,0.00,0.00,0.00,-0.04,-0.09,1.03,-0.08,1.38,1.88,0.46,0.15,-0.44,80.79,2.30,-5.17
263,1889,101129,1189,3260,0,0,0,0,0.00,0.00,0.00,-0.04,-0.09,1.03,-0.13,1.39,2.01,0.47,0.15,-0.44,80.89,2.46,-5.22
264,1893,101127,1189,3255,0,0,0,0,0.00,0.00,0.00,-0.04,-0.09,1.04,-0.07,1.54,1.68,0.45,0.15,-0.43,79.94,2.46,-5.15
265,1894,101130,1188,3258,0,0,0,0,0.00,0.00,0.00,-0.05,-0.09,1.04,-0.24,1.42,1.83,0.46,0.15,-0.44,80.32,2.60,-5.09
266,1897,101129,1181,3262,0,0,0,0,0.00,0.00,0.00,-0.04,-0.09,1.03,-0.22,1.39,1.53,0.50,0.15,-0.45,82.17,2.44,-5.15
267,1898,101125,1175,3272,0,0,0,0,0.00,0.00,0.00,-0.05,-0.09,1.03,-0.22,1.31,1.61,0.46,0.14,-0.44,81.32,2.63,-5.15
268,1900,101129,1171,3284,0,0,0,0,0.00,0.00,0.00,-0.05,-0.08,1.03,-0.20,1.20,1.62,0.46,0.15,-0.45,80.84,2.52,-4.36
269,1896,101131,1167,3302,0,0,0,0,0.00,0.00,0.00,-0.04,-0.09,1.03,-0.20,1.28,1.63,0.46,0.15,-0.44,80.74,2.44,-5.06
270,1890,101129,1164,3309,0,0,0,0,0.00,0.00,0.00,-0.04,-0.09,1.03,-0.15,1.48,1.53,0.46,0.15,-0.43,80.87,2.46,-5.14
271,1889,101127,1159,3321,0,0,0,0,0.00,0.00,0.00,-0.05,-0.09,1.03,-0.07,1.44,1.67,0.46,0.15,-0.44,80.23,2.64,-5.17
272,1888,101129,1157,3326,0,0,0,0,0.00,0.00,0.00,-0.04,-0.09,1.03,-0.19,1.27,1.62,0.46,0.15,-0.44,79.90,2.27,-5.02
273,1889,101130,1155,3328,0,0,0,0,0.00,0.00,0.00,-0.04,-0.09,1.03,-0.07,1.33,1.60,0.46,0.15,-0.44,80.75,2.39,-5.07
274,1892,101131,1152,3341,0,0,0,0,0.00,0.00,0.00,-0.04,-0.09,1.03,-0.13,1.47,1.61,0.46,0.14,-0.44,81.08,2.39,-5.10
275,1883,101129,1144,3336,0,0,0,0,0.00,0.00,0.00,-0.04,-0.09,1.03,-0.14,1.35,1.80,0.46,0.15,-0.44,80.55,2.45,-5.07
276,1872,101129,1139,3345,0,0,0,0,0.00,0.00,0.00,-0.04,-0.09,1.03,0.03,1.24,1.47,0.46,0.15,-0.44,80.06,2.42,-5.12
277,1874,101129,1133,3392,0,0,0,0,0.00,0.00,0.00,-0.05,-0.09,1.03,-0.10,1.27,1.55,0.46,0.15,-0.44,80.68,2.49,-5.11
278,1870,101127,1124,3412,0,0,0,0,0.00,0.00,0.00,-0.05,-0.09,1.03,-0.26,1.42,1.67,0.46,0.15,-0.44,80.44,2.54,-5.16
279,1868,101129,1115,3429,0,0,0,0,0.00,0.00,0.00,-0.05,-0.09,1.03,0.06,1.26,1.88,0.47,0.15,-0.44,81.16,2.52,-5.17
280,1863,101122,1111,3451,0,0,0,0,0.00,0.00,0.00,-0.05,-0.09,1.03,-0.30,1.43,1.47,0.46,0.15,-0.44,80.32,2.50,-5.25
281,1862,101130,1096,3485,0,0,0,0,0.00,0.00,0.00,-0.04,-0.09,1.03,-0.07,1.38,1.70,0.46,0.15,-0.44,80.61,2.46,-5.16
282,1857,101125,1085,3502,0,0,0,0,0.00,0.00,0.00,-0.05,-0.09,1.03,-0.19,1.29,1.62,0.46,0.15,-0.45,80.61,2.76,-5.17
283,1857,101128,1070,3546,0,0,0,0,0.00,0.00,0.00,-0.04,-0.09,1.03,-0.05,1.48,1.75,0.46,0.16,-0.43,80.03,2.43,-5.15
284,1849,101132,1061,3571,0,0,0,0,0.00,0.00,0.00,-0.04,-0.09,1.03,-0.17,1.20,1.74,0.46,0.15,-0.44,80.84,2.38,-5.13
285,1841,101128,1053,3598,0,0,0,0,0.00,0.00,0.00,-0.04,-0.09,1.03,-0.22,1.19,1.84,0.47,0.15,-0.44,80.50,2.47,-5.13
286,1819,101125,1048,3625,0,0,0,0,0.00,0.00,0.00,-0.05,-0.09,1.03,-0.28,1.14,1.58,0.46,0.15,-0.44,80.76,2.52,-5.08
287,1803,101126,1041,3664,0,0,0,0,0.00,0.00,0.00,-0.05,-0.09,1.03,-0.10,1.18,1.74,0.46,0.15,-0.44,80.70,2.55,-5.07
288,1787,101130,1039,3692,0,0,0,0,0.00,0.00,0.00,-0.05,-0.09,1.03,-0.27,1.44,1.72,0.46,0.15,-0.44,80.74,2.49,-5.14
289,1779,101127,1037,3718,0,0,0,0,0.00,0.00,0.00,-0.05,-0.09,1.03,-0.07,1.28,1.46,0.46,0.14,-0.44,81.38,2.54,-5.09
290,1776,101129,1035,3728,0,0,0,0,0.00,0.00,0.00,-0.05,-0.09,1.03,-0.25,1.37,1.76,0.46,0.14,-0.44,81.74,2.50,-5.01
291,1780,101128,1027,3765,0,0,0,0,0.00,0.00,0.00,-0.04,-0.09,1.03,-0.33,1.28,1.54,0.46,0.14,-0.44,81.38,2.40,-5.21
292,1782,101133,1021,3779,0,0,0,0,0.00,0.00,0.00,-0.05,-0.09,1.03,-0.07,1.53,1.70,0.46,0.14,-0.44,81.31,2.60,-5.14
293,1768,101127,1017,3807,0,0,0,0,0.00,0.00,0.00,-0.04,-0.09,1.03,-0.27,1.24,1.77,0.46,0.15,-0.44,80.89,2.42,-5.19
294,1749,101129,1012,3846,0,0,0,0,0.00,0.00,0.00,-0.05,-0.09,1.02,-0.43,1.31,1.81,0.46,0.15,-0.44,80.54,2.54,-5.15
295,1752,101128,999,3888,0,0,0,0,0.00,0.00,0.00,-0.04,-0.09,1.03,-0.14,1.27,1.41,0.46,0.15,-0.45,81.02,2.38,-5.19
296,1754,101129,987,3930,0,0,0,0,0.00,0.00,0.00,-0.05,-0.09,1.03,-0.34,1.49,1.69,0.46,0.15,-0.44,80.83,2.52,-5.09
297,1755,101130,979,3972,0,0,0,0,0.00,0.00,0.00,-0.04,-0.09,1.03,-0.22,1.25,1.56,0.46,0.15,-0.44,80.49,2.39,-5.21
298,1755,101131,971,3999,0,0,0,0,0.00,0.00,0.00,-0.05,-0.09,1.03,-0.13,1.34,1.61,0.46,0.15,-0.44,80.59,2.53,-5.18
299,1755,101131,971,4013,0,0,0,0,0.00,0.00,0.00,-0.04,-0.09,1.03,-0.33,1.22,1.64,0.46,0.15,-0.44,80.74,2.48,-5.14
300,1751,101130,967,4035,0,0,0,0,0.00,0.00,0.00,-0.04,-0.09,1.03,-0.46,1.26,1.52,0.46,0.15,-0.44,81.06,2.41,-5.18
301,1750,101129,964,4067,0,0,0,0,0.00,0.00,0.00,-0.05,-0.09,1.03,-0.31,1.47,1.73,0.46,0.14,-0.43,81.47,2.59,-5.20
302,1748,101131,961,4094,0,0,0,0,0.00,0.00,0.00,-0.04,-0.09,1.03,-0.28,1.35,1.53,0.47,0.15,-0.44,80.81,2.47,-5.15
303,1747,101128,958,4119,0,0,0,0,0.00,0.00,0.00,-0.04,-0.09,1.03,-0.07,1.08,1.72,0.47,0.15,-0.46,81.20,2.45,-5.07
304,1745,101128,956,4124,0,0,0,0,0.00,0.00,0.00,-0.05,-0.09,1.03,-0.07,1.38,1.63,0.46,0.15,-0.45,80.49,2.56,-5.19
305,1743,101129,954,4129,0,0,0,0,0.00,0.00,0.00,-0.05,-0.09,1.03,-0.13,1.34,1.77,0.47,0.14,-0.45,81.80,2.51,-5.07
306,2252,101140,954,4139,0,0,0,0,0.00,0.00,0.00,-0.05,-0.09,1.03,-0.22,1.25,1.31,0.46,0.15,-0.44,80.67,2.57,-5.13
307,2250,101137,953,4158,0,0,0,0,0.00,0.00,0.00,-0.04,-0.09,1.03,-0.30,1.49,1.67,0.46,0.15,-0.45,80.96,2.38,-5.18
308,2244,101135,954,4146,0,0,0,0,0.00,0.00,0.00,-0.04,-0.09,1.03,-0.32,1.36,1.73,0.46,0.15,-0.44,80.95,2.19,-5.16
309,2245,101135,956,4134,0,0,0,0,0.00,0.00,0.00,-0.04,-0.09,1.04,-0.31,1.42,1.58,0.46,0.14,-0.45,81.18,2.46,-5.16
310,2245,101136,957,4129,0,0,0,0,0.00,0.00,0.00,-0.04,-0.09,1.03,-0.18,1.36,1.90,0.47,0.14,-0.44,81.54,2.47,-5.12
311,2243,101135,957,4134,0,0,0,0,0.00,0.00,0.00,-0.05,-0.09,1.03,-0.20,1.09,1.70,0.47,0.14,-0.44,81.56,2.53,-5.13
312,2239,101130,954,4139,0,0,0,0,0.00,0.00,0.00,-0.05,-0.09,1.02,-0.28,1.32,1.55,0.47,0.15,-0.44,80.93,2.51,-5.16
313,2239,101135,952,4146,0,0,0,0,0.00,0.00,0.00,-0.04,-0.09,1.03,-0.16,1.31,1.75,0.46,0.14,-0.44,81.17,2.48,-5.20
314,2238,101132,950,4151,0,0,0,0,0.00,0.00,0.00,-0.04,-0.09,1.03,-0.19,1.29,1.70,0.46,0.15,-0.45,81.09,2.47,-5.14
315,2236,101135,949,4166,0,0,0,0,0.00,0.00,0.00,-0.04,-0.09,1.03,-0.11,1.25,1.71,0.46,0.15,-0.44,80.98,2.31,-5.12
316,2238,101136,949,4163,0,0,0,0,0.00,0.00,0.00,-0.05,-0.09,1.03,-0.01,1.40,1.86,0.47,0.15,-0.44,81.34,2.57,-5.15
317,2237,101137,950,4168,0,0,0,0,0.00,0.00,0.00,-0.04,-0.09,1.03,-0.18,1.35,1.85,0.46,0.14,-0.44,81.76,2.45,-5.24
318,2242,101130,952,4166,0,0,0,0,0.00,0.00,0.00,-0.04,-0.09,1.03,-0.26,1.30,1.84,0.46,0.14,-0.43,81.36,2.32,-5.16
319,2242,101132,954,4168,0,0,0,0,0.00,0.00,0.00,-0.04,-0.08,1.03,-0.15,1.40,1.56,0.46,0.14,-0.45,81.55,2.41,-4.36
320,2243,101135,956,4161,0,0,0,0,0.00,0.00,0.00,-0.04,-0.10,1.03,-0.32,1.39,1.69,0.47,0.14,-0.44,82.03,2.44,-5.29
321,2244,101131,958,4163,0,0,0,0,0.00,0.00,0.00,-0.04,-0.09,1.04,-0.40,1.37,1.52,0.47,0.15,-0.44,81.00,2.43,-5.20
322,2246,101127,963,4158,0,0,0,0,0.00,0.00,0.00,-0.04,-0.09,1.03,-0.40,1.40,1.81,0.46,0.14,-0.45,81.66,2.42,-5.21
323,2245,101134,968,4141,0,0,0,0,0.00,0.00,0.00,-0.04,-0.09,1.03,-0.19,1.29,1.86,0.46,0.14,-0.44,81.67,2.40,-5.15
324,2246,101134,971,4136,0,0,0,0,0.00,0.00,0.00,-0.04,-0.09,1.03,-0.30,1.29,1.75,0.46,0.14,-0.45,81.33,2.40,-5.15
325,2244,101135,972,4156,0,0,0,0,0.00,0.00,0.00,-0.05,-0.09,1.03,-0.07,1.35,1.73,0.46,0.14,-0.43,81.24,2.52,-5.18
326,2243,101133,972,4156,0,0,0,0,0.00,0.00,0.00,-0.05,-0.09,1.03,-0.25,1.22,1.72,0.46,0.15,-0.44,80.55,2.65,-5.10
327,2242,101130,970,4178,0,0,0,0,0.00,0.00,0.00,-0.04,-0.09,1.03,-0.24,1.28,1.58,0.46,0.15,-0.45,81.12,2.35,-5.02
328,2244,101130,967,4180,0,0,0,0,0.00,0.00,0.00,-0.04,-0.09,1.03,-0.22,1.10,1.84,0.46,0.15,-0.44,80.70,2.34,-5.12
329,2244,101133,965,4188,0,0,0,0,0.00,0.00,0.00,-0.04,-0.09,1.03,-0.31,1.33,1.64,0.46,0.14,-0.45,81.50,2.45,-5.16
330,2244,101130,964,4193,0,0,0,0,0.00,0.00,0.00,-0.05,-0.09,1.04,-0.39,1.38,1.59,0.46,0.15,-0.44,80.96,2.53,-5.18
331,2243,101130,963,4201,0,0,0,0,0.00,0.00,0.00,-0.05,-0.09,1.03,-0.29,1.41,1.84,0.46,0.14,-0.44,81.40,2.55,-5.18
332,2244,101131,963,4196,0,0,0,0,0.00,0.00,0.00,-0.05,-0.09,1.03,-0.18,1.38,1.69,0.46,0.14,-0.46,81.47,2.61,-5.12
333,2244,101128,964,4203,0,0,0,0,0.00,0.00,0.00,-0.04,-0.09,1.03,-0.19,1.33,1.79,0.46,0.14,-0.43,81.21,2.40,-5.10
334,2245,101132,961,4220,0,0,0,0,0.00,0.00,0.00,-0.04,-0.09,1.03,-0.15,1.12,1.79,0.46,0.14,-0.45,81.28,2.37,-5.22
335,2244,101132,957,4244,0,0,0,0,0.00,0.00,0.00,-0.05,-0.09,1.03,-0.22,1.44,1.88,0.46,0.15,-0.44,81.13,2.58,-5.20
336,2244,101130,954,4260,0,0,0,0,0.00,0.00,0.00,-0.05,-0.09,1.03,-0.29,1.24,1.55,0.47,0.14,-0.45,81.47,2.68,-5.17
337,2243,101129,949,4287,0,0,0,0,0.00,0.00,0.00,-0.04,-0.09,1.03,-0.28,1.35,1.70,0.47,0.15,-0.45,81.29,2.45,-5.17
338,2238,101130,943,4306,0,0,0,0,0.00,0.00,0.00,-0.04,-0.09,1.03,-0.19,1.47,1.79,0.47,0.15,-0.44,81.16,2.45,-5.11
339,2236,101132,938,4334,0,0,0,0,0.00,0.00,0.00,-0.05,-0.09,1.03,-0.36,1.10,1.82,0.47,0.14,-0.45,81.79,2.52,-5.15
340,2234,101134,932,4351,0,0,0,0,0.00,0.00,0.00,-0.04,-0.08,1.03,-0.01,1.39,1.59,0.46,0.15,-0.44,80.86,2.37,-4.34
341,2233,101131,925,4393,0,0,0,0,0.00,0.00,0.00,-0.05,-0.09,1.03,-0.27,1.13,2.07,0.46,0.14,-0.45,81.12,2.56,-5.05
342,2228,101133,917,4398,0,0,0,0,0.00,0.00,0.00,-0.05,-0.09,1.03,-0.29,1.26,1.72,0.46,0.14,-0.44,81.14,2.51,-5.22
343,2226,101131,911,4398,0,0,0,0,0.00,0.00,0.00,-0.04,-0.09,1.03,-0.24,1.11,1.73,0.46,0.14,-0.45,81.17,2.47,-5.22
344,2221,101138,905,4398,0,0,0,0,0.00,0.00,0.00,-0.04,-0.09,1.03,-0.25,1.29,1.61,0.46,0.15,-0.45,81.12,2.43,-5.09
345,2211,101137,902,4425,0,0,0,0,0.00,0.00,0.00,-0.05,-0.09,1.03,-0.16,1.15,1.80,0.46,0.14,-0.44,81.88,2.55,-5.16
346,2207,101133,899,4435,0,0,0,0,0.00,0.00,0.00,-0.05,-0.09,1.03,-0.12,1.29,1.78,0.46,0.14,-0.45,81.32,2.51,-5.22
347,2205,101136,893,4462,0,0,0,0,0.00,0.00,0.00,-0.05,-0.09,1.04,-0.46,1.11,1.72,0.46,0.14,-0.44,81.63,2.48,-5.15
348,2204,101134,891,4482,0,0,0,0,0.00,0.00,0.00,-0.05,-0.09,1.03,-0.14,1.23,1.53,0.46,0.15,-0.45,81.15,2.53,-5.14
349,2201,101135,888,4514,0,0,0,0,0.00,0.00,0.00,-0.05,-0.09,1.03,-0.39,1.25,1.73,0.46,0.14,-0.44,81.60,2.52,-5.07
350,2191,101136,884,4521,0,0,0,0,0.00,0.00,0.00,-0.05,-0.09,1.03,-0.16,1.40,1.69,0.46,0.15,-0.45,80.91,2.49,-5.22
351,2189,101136,884,4534,0,0,0,0,0.00,0.00,0.00,-0.05,-0.09,1.03,-0.47,1.24,1.67,0.46,0.14,-0.44,81.49,2.53,-5.14
352,2187,101137,883,4526,0,0,0,0,0.00,0.00,0.00,-0.05,-0.09,1.03,-0.32,1.19,1.64,0.46,0.14,-0.45,81.61,2.59,-5.17
353,2185,101134,889,4511,0,0,0,0,0.00,0.00,0.00,-0.05,-0.09,1.03,-0.25,1.02,1.82,0.46,0.14,-0.45,81.32,2.61,-5.00
354,2181,101136,891,4497,0,0,0,0,0.00,0.00,0.00,-0.05,-0.09,1.04,-0.53,1.19,1.79,0.46,0.14,-0.45,81.63,2.52,-5.20
355,2178,101134,896,4482,0,0,0,0,0.00,0.00,0.00,-0.04,-0.09,1.03,-0.35,1.32,1.81,0.46,0.14,-0.44,81.32,2.46,-5.07
356,2174,101139,900,4472,0,0,0,0,0.00,0.00,0.00,-0.04,-0.09,1.03,-0.23,1.23,1.67,0.46,0.14,-0.44,81.57,2.39,-5.06
357,2173,101141,903,4459,0,0,0,0,0.00,0.00,0.00,-0.05,-0.09,1.04,-0.17,1.21,1.72,0.45,0.14,-0.44,80.96,2.50,-5.13
358,2177,101139,909,4445,0,0,0,0,0.00,0.00,0.00,-0.04,-0.09,1.03,-0.57,1.17,1.80,0.46,0.15,-0.45,80.76,2.48,-5.17
359,2178,101138,914,4425,0,0,0,0,0.00,0.00,0.00,-0.04,-0.09,1.04,-0.21,1.30,1.56,0.46,0.15,-0.44,80.96,2.36,-5.13
360,2181,101135,918,4410,0,0,0,0,0.00,0.00,0.00,-0.04,-0.09,1.03,-0.20,1.21,1.50,0.46,0.15,-0.46,81.10,2.45,-5.12
361,2180,101132,924,4403,0,0,0,0,0.00,0.00,0.00,-0.05,-0.09,1.03,-0.19,1.13,1.50,0.46,0.15,-0.45,80.67,2.50,-5.19
362,2180,101139,924,4420,0,0,0,0,0.00,0.00,0.00,-0.04,-0.09,1.03,-0.31,1.33,1.74,0.46,0.14,-0.45,81.88,2.29,-5.17
363,2181,101135,920,4445,0,0,0,0,0.00,0.00,0.00,-0.05,-0.09,1.03,-0.28,1.32,1.56,0.46,0.15,-0.44,80.68,2.55,-5.11
364,2181,101140,916,4462,0,0,0,0,0.00,0.00,0.00,-0.04,-0.09,1.03,-0.21,1.20,1.85,0.47,0.14,-0.44,81.28,2.36,-5.02
365,2182,101134,913,4474,0,0,0,0,0.00,0.00,0.00,-0.04,-0.09,1.04,-0.16,1.38,1.44,0.46,0.14,-0.45,81.27,2.46,-5.16
366,2182,101135,910,4482,0,0,0,0,0.00,0.00,0.00,-0.04,-0.09,1.03,-0.28,1.45,1.73,0.46,0.15,-0.44,80.68,2.31,-5.15
367,2181,101137,905,4492,0,0,0,0,0.00,0.00,0.00,-0.04,-0.09,1.04,-0.16,1.28,1.82,0.46,0.15,-0.45,80.85,2.47,-5.09
368,2180,101136,903,4497,0,0,0,0,0.00,0.00,0.00,-0.05,-0.09,1.04,-0.30,1.23,1.53,0.46,0.14,-0.43,81.26,2.48,-5.05
369,2180,101133,900,4511,0,0,0,0,0.00,0.00,0.00,-0.05,-0.09,1.03,-0.29,1.20,1.81,0.46,0.15,-0.45,81.04,2.64,-5.11
370,2179,101134,896,4523,0,0,0,0,0.00,0.00,0.00,-0.05,-0.09,1.04,-0.04,1.33,1.53,0.46,0.15,-0.44,80.70,2.59,-5.13
371,2177,101134,888,4526,0,0,0,0,0.00,0.00,0.00,-0.05,-0.09,1.04,-0.37,1.17,1.79,0.46,0.15,-0.44,81.11,2.49,-5.17
372,2175,101134,881,4521,0,0,0,0,0.00,0.00,0.00,-0.04,-0.09,1.03,-0.43,1.29,1.81,0.47,0.15,-0.44,81.00,2.45,-5.15
373,2173,101135,872,4534,0,0,0,0,0.00,0.00,0.00,-0.05,-0.09,1.04,-0.31,1.24,1.69,0.47,0.15,-0.43,81.07,2.51,-5.10
374,2167,101135,865,4558,0,0,0,0,0.00,0.00,0.00,-0.05,-0.09,1.03,-0.10,1.35,1.82,0.46,0.14,-0.44,81.16,2.49,-5.14
375,2164,101138,857,4598,0,0,0,0,0.00,0.00,0.00,-0.04,-0.09,1.02,-0.33,1.26,1.71,0.46,0.14,-0.44,82.04,2.46,-5.18
376,2159,101133,851,4625,0,0,0,0,0.00,0.00,0.00,-0.04,-0.09,1.03,-0.40,1.26,1.61,0.47,0.14,-0.45,81.98,2.48,-5.18
377,2156,101137,843,4675,0,0,0,0,0.00,0.00,0.00,-0.05,-0.09,1.03,-0.42,1.26,1.67,0.47,0.15,-0.44,81.38,2.53,-5.08
378,2151,101136,837,4699,0,0,0,0,0.00,0.00,0.00,-0.05,-0.09,1.03,-0.31,1.17,1.60,0.47,0.15,-0.44,81.02,2.56,-5.09
379,2147,101135,832,4732,0,0,0,0,0.00,0.00,0.00,-0.05,-0.09,1.03,-0.45,1.17,1.41,0.47,0.14,-0.44,81.56,2.55,-5.19
380,2145,101135,828,4756,0,0,0,0,0.00,0.00,0.00,-0.04,-0.09,1.03,-0.23,1.20,1.65,0.47,0.14,-0.44,82.16,2.45,-5.24
381,2144,101139,825,4823,0,0,0,0,0.00,0.00,0.00,-0.04,-0.09,1.03,-0.25,1.28,1.70,0.47,0.14,-0.44,81.71,2.45,-5.07
382,2142,101137,822,4855,0,0,0,0,0.00,0.00,0.00,-0.04,-0.09,1.04,-0.34,1.26,1.76,0.47,0.15,-0.43,81.25,2.43,-5.17
383,2140,101141,822,4875,0,0,0,0,0.00,0.00,0.00,-0.05,-0.09,1.03,-0.22,1.15,1.77,0.47,0.15,-0.45,81.38,2.57,-5.19
384,2139,101138,821,4905,0,0,0,0,0.00,0.00,0.00,-0.04,-0.09,1.03,-0.18,1.23,1.59,0.47,0.14,-0.44,81.52,2.39,-5.11
385,2138,101139,822,4924,0,0,0,0,0.00,0.00,0.00,-0.04,-0.09,1.03,-0.61,1.23,1.80,0.46,0.14,-0.45,81.75,2.41,-5.13
386,2138,101137,824,4917,0,0,0,0,0.00,0.00,0.00,-0.05,-0.09,1.03,-0.18,1.21,1.48,0.47,0.14,-0.45,81.42,2.50,-5.13
387,2138,101136,826,4905,0,0,0,0,0.00,0.00,0.00,-0.04,-0.09,1.04,-0.45,1.14,1.68,0.47,0.14,-0.44,81.62,2.41,-5.07
388,2139,101136,829,4900,0,0,0,0,0.00,0.00,0.00,-0.04,-0.09,1.04,-0.29,1.32,1.77,0.46,0.14,-0.44,81.25,2.45,-5.03
389,2138,101140,835,4877,0,0,0,0,0.00,0.00,0.00,-0.05,-0.09,1.03,-0.29,1.29,1.84,0.46,0.14,-0.44,81.29,2.51,-5.14
390,2138,101135,837,4870,0,0,0,0,0.00,0.00,0.00,-0.03,-0.09,1.03,-0.33,1.13,1.73,0.46,0.14,-0.45,81.74,1.75,-5.13
391,2137,101141,841,4860,0,0,0,0,0.00,0.00,0.00,-0.05,-0.09,1.03,-0.37,1.20,1.70,0.47,0.14,-0.44,82.10,2.58,-5.07
392,2132,101140,845,4838,0,0,0,0,0.00,0.00,0.00,-0.03,-0.09,1.03,-0.27,1.44,1.69,0.46,0.14,-0.44,81.42,1.80,-5.03
393,2130,101137,850,4826,0,0,0,0,0.00,0.00,0.00,-0.04,-0.09,1.04,-0.13,1.05,1.71,0.47,0.14,-0.44,81.76,2.46,-5.16
394,2130,101136,852,4816,0,0,0,0,0.00,0.00,0.00,-0.04,-0.09,1.03,-0.16,1.05,1.65,0.47,0.14,-0.44,81.58,2.48,-5.14
395,2128,101139,857,4821,0,0,0,0,0.00,0.00,0.00,-0.04,-0.09,1.03,-0.37,1.47,1.90,0.47,0.14,-0.45,81.75,2.45,-5.23
396,2129,101138,862,4801,0,0,0,0,0.00,0.00,0.00,-0.04,-0.09,1.03,-0.42,1.10,1.89,0.47,0.14,-0.44,81.57,2.45,-5.04
397,2130,101136,868,4788,0,0,0,0,0.00,0.00,0.00,-0.05,-0.09,1.03,-0.28,1.15,1.91,0.46,0.15,-0.45,81.22,2.50,-5.20
398,2134,101134,869,4783,0,0,0,0,0.00,0.00,0.00,-0.04,-0.09,1.04,-0.46,1.33,1.85,0.46,0.14,-0.44,81.46,2.47,-5.20
399,2133,101135,869,4774,0,0,0,0,0.00,0.00,0.00,-0.05,-0.09,1.03,-0.39,1.32,1.79,0.46,0.14,-0.44,81.44,2.58,-5.10
400,2128,101133,870,4769,0,0,0,0,0.00,0.00,0.00,-0.05,-0.09,1.03,-0.19,1.38,1.75,0.46,0.15,-0.45,81.07,2.55,-5.13
401,2122,101133,873,4751,0,0,0,0,0.00,0.00,0.00,-0.04,-0.09,1.03,-0.10,1.08,1.90,0.46,0.15,-0.44,80.45,2.41,-5.14
402,2116,101137,875,4732,0,0,0,0,0.00,0.00,0.00,-0.05,-0.09,1.03,-0.41,1.11,1.78,0.46,0.14,-0.44,81.22,2.55,-5.16
403,2115,101134,875,4699,0,0,0,0,0.00,0.00,0.00,-0.04,-0.09,1.03,-0.28,1.29,1.70,0.47,0.14,-0.45,81.65,2.38,-5.09
404,2117,101134,872,4697,0,0,0,0,0.00,0.00,0.00,-0.04,-0.09,1.03,-0.37,1.39,1.50,0.47,0.14,-0.44,81.49,2.29,-5.13
405,2118,101131,870,4704,0,0,0,0,0.00,0.00,0.00,-0.05,-0.09,1.03,-0.22,1.59,1.82,0.47,0.14,-0.45,81.62,2.51,-5.12
406,2125,101135,868,4707,0,0,0,0,0.00,0.00,0.00,-0.04,-0.09,1.03,-0.28,1.33,1.74,0.47,0.15,-0.45,80.87,2.41,-5.13
407,2125,101131,870,4704,0,0,0,0,0.00,0.00,0.00,-0.04,-0.09,1.03,-0.32,1.23,1.79,0.46,0.15,-0.44,80.79,2.33,-5.17
408,2128,101132,872,4699,0,0,0,0,0.00,0.00,0.00,-0.04,-0.09,1.04,-0.31,1.25,1.75,0.46,0.15,-0.44,80.77,2.38,-5.02
409,2127,101136,877,4677,0,0,0,0,0.00,0.00,0.00,-0.05,-0.09,1.03,-0.19,1.25,1.83,0.47,0.14,-0.45,81.54,2.54,-5.17
410,2127,101132,880,4672,0,0,0,0,0.00,0.00,0.00,-0.05,-0.09,1.03,-0.16,1.39,1.46,0.46,0.14,-0.44,81.52,2.53,-5.19
411,2128,101132,884,4669,0,0,0,0,0.00,0.00,0.00,-0.04,-0.09,1.03,-0.43,1.10,1.67,0.47,0.14,-0.45,81.42,2.44,-5.17
412,2126,101137,888,4667,0,0,0,0,0.00,0.00,0.00,-0.04,-0.08,1.04,-0.10,1.14,1.75,0.46,0.15,-0.45,80.96,2.45,-4.32
413,2124,101136,889,4667,0,0,0,0,0.00,0.00,0.00,-0.05,-0.09,1.03,-0.37,1.26,1.61,0.46,0.15,-0.44,80.58,2.54,-5.05
414,2126,101135,891,4664,0,0,0,0,0.00,0.00,0.00,-0.04,-0.09,1.04,-0.24,1.35,1.69,0.47,0.15,-0.44,81.19,2.42,-5.11
415,2125,101133,893,4662,0,0,0,0,0.00,0.00,0.00,-0.05,-0.09,1.04,-0.63,1.19,1.71,0.46,0.15,-0.44,80.88,2.54,-5.10
416,2127,101133,896,4660,0,0,0,0,0.00,0.00,0.00,-0.04,-0.09,1.04,-0.28,1.32,1.84,0.47,0.15,-0.45,81.19,2.43,-5.17
417,2128,101132,898,4647,0,0,0,0,0.00,0.00,0.00,-0.05,-0.09,1.04,-0.31,1.18,1.70,0.47,0.15,-0.44,80.88,2.52,-4.99
418,2132,101134,900,4633,0,0,0,0,0.00,0.00,0.00,-0.04,-0.09,1.04,-0.52,1.23,1.81,0.47,0.15,-0.44,80.60,2.38,-5.16
419,2132,101134,903,4633,0,0,0,0,0.00,0.00,0.00,-0.04,-0.09,1.04,-0.37,1.31,1.85,0.46,0.15,-0.44,80.31,2.42,-5.06
420,2135,101133,903,4633,0,0,0,0,0.00,0.00,0.00,-0.04,-0.09,1.04,-0.31,1.10,1.75,0.47,0.15,-0.44,80.95,2.41,-5.03
421,2136,101134,900,4638,0,0,0,0,0.00,0.00,0.00,-0.04,-0.09,1.04,-0.16,1.21,1.76,0.47,0.15,-0.44,81.07,2.36,-5.21
422,2139,101137,898,4645,0,0,0,0,0.00,0.00,0.00,-0.04,-0.09,1.04,-0.30,1.34,1.56,0.47,0.14,-0.44,82.03,2.42,-5.07
423,2140,101134,895,4652,0,0,0,0,0.00,0.00,0.00,-0.04,-0.09,1.03,-0.07,1.30,1.63,0.47,0.14,-0.44,82.10,2.40,-4.99
424,2142,101132,892,4657,0,0,0,0,0.00,0.00,0.00,-0.04,-0.09,1.04,-0.41,1.28,1.61,0.47,0.14,-0.44,81.88,2.41,-5.13
425,2139,101135,888,4694,0,0,0,0,0.00,0.00,0.00,-0.05,-0.09,1.03,-0.27,1.29,1.74,0.46,0.14,-0.44,81.90,2.49,-5.06
426,2132,101136,883,4724,0,0,0,0,0.00,0.00,0.00,-0.05,-0.09,1.03,-0.25,1.24,1.74,0.46,0.14,-0.45,81.88,2.58,-5.21
427,2131,101136,879,4758,0,0,0,0,0.00,0.00,0.00,-0.05,-0.09,1.04,-0.16,1.24,1.76,0.46,0.14,-0.45,81.18,2.52,-5.19
428,2136,101134,875,4774,0,0,0,0,0.00,0.00,0.00,-0.04,-0.09,1.04,-0.46,1.15,1.76,0.46,0.15,-0.44,81.06,2.35,-5.16
429,2137,101132,870,4774,0,0,0,0,0.00,0.00,0.00,-0.04,-0.09,1.04,-0.15,1.23,1.59,0.47,0.15,-0.44,81.13,2.33,-5.18
430,2141,101132,865,4769,0,0,0,0,0.00,0.00,0.00,-0.04,-0.09,1.03,-0.25,1.31,1.64,0.47,0.15,-0.43,80.49,2.37,-5.13
431,2141,101135,862,4754,0,0,0,0,0.00,0.00,0.00,-0.05,-0.09,1.03,-0.24,1.21,1.73,0.46,0.15,-0.44,80.65,2.51,-5.19
432,2127,101133,861,4744,0,0,0,0,0.00,0.00,0.00,-0.05,-0.09,1.03,-0.28,1.34,1.73,0.46,0.14,-0.45,81.64,2.57,-5.17
433,2124,101134,862,4758,0,0,0,0,0.00,0.00,0.00,-0.05,-0.09,1.03,-0.10,1.26,1.94,0.47,0.15,-0.43,81.14,2.56,-5.11
434,2126,101138,862,4766,0,0,0,0,0.00,0.00,0.00,-0.04,-0.09,1.03,-0.37,1.10,1.71,0.47,0.14,-0.44,81.45,2.44,-5.20
435,2119,101132,861,4761,0,0,0,0,0.00,0.00,0.00,-0.04,-0.09,1.03,0.01,1.13,1.70,0.46,0.14,-0.44,82.13,2.38,-5.17
436,2102,101136,858,4763,0,0,0,0,0.00,0.00,0.00,-0.05,-0.09,1.03,-0.19,1.42,1.91,0.46,0.14,-0.44,81.34,2.51,-5.10
437,2095,101134,854,4769,0,0,0,0,0.00,0.00,0.00,-0.04,-0.09,1.03,-0.31,1.30,1.78,0.47,0.14,-0.44,82.10,2.34,-5.06
438,2088,101135,852,4771,0,0,0,0,0.00,0.00,0.00,-0.04,-0.09,1.03,-0.63,1.02,1.60,0.46,0.15,-0.45,81.16,2.41,-5.16
439,2085,101135,851,4769,0,0,0,0,0.00,0.00,0.00,-0.04,-0.09,1.03,-0.46,1.17,1.74,0.47,0.15,-0.44,81.20,2.39,-5.19
440,2083,101137,850,4769,0,0,0,0,0.00,0.00,0.00,-0.04,-0.09,1.03,-0.41,1.46,1.82,0.46,0.15,-0.43,80.74,2.48,-5.09
441,2085,101136,850,4788,0,0,0,0,0.00,0.00,0.00,-0.05,-0.09,1.03,-0.34,1.15,1.76,0.47,0.14,-0.44,81.38,2.50,-5.20
442,2092,101131,847,4808,0,0,0,0,0.00,0.00,0.00,-0.04,-0.09,1.04,-0.24,1.32,1.75,0.46,0.14,-0.44,81.29,2.38,-5.14
443,2094,101135,843,4813,0,0,0,0,0.00,0.00,0.00,-0.04,-0.09,1.03,-0.33,1.18,1.88,0.46,0.13,-0.44,82.34,2.44,-5.15
444,2096,101135,841,4813,0,0,0,0,0.00,0.00,0.00,-0.04,-0.09,1.04,-0.37,1.23,1.76,0.46,0.14,-0.43,81.27,2.30,-5.07
445,2095,101134,839,4833,0,0,0,0,0.00,0.00,0.00,-0.04,-0.09,1.03,-0.37,1.11,1.71,0.46,0.15,-0.44,80.74,2.45,-5.06
446,2095,101136,835,4840,0,0,0,0,0.00,0.00,0.00,-0.05,-0.09,1.03,-0.37,1.33,1.54,0.47,0.14,-0.44,82.04,2.51,-5.17
447,2094,101136,831,4868,0,0,0,0,0.00,0.00,0.00,-0.06,-0.09,1.04,-0.39,1.23,1.66,0.46,0.14,-0.44,81.56,3.35,-5.10
448,2096,101136,826,4885,0,0,0,0,0.00,0.00,0.00,-0.05,-0.09,1.03,-0.33,1.21,1.62,0.46,0.14,-0.45,81.32,2.55,-5.19
449,2094,101137,825,4905,0,0,0,0,0.00,0.00,0.00,-0.04,-0.09,1.03,-0.40,1.30,1.72,0.46,0.14,-0.44,81.50,2.45,-5.13
450,2096,101135,825,4910,0,0,0,0,0.00,0.00,0.00,-0.04,-0.09,1.03,-0.37,1.26,1.79,0.46,0.14,-0.44,81.64,2.41,-5.06
451,2094,101134,824,4902,0,0,0,0,0.00,0.00,0.00,-0.04,-0.09,1.03,-0.18,1.28,1.75,0.46,0.14,-0.44,81.59,2.45,-5.10
452,2091,101135,822,4898,0,0,0,0,0.00,0.00,0.00,-0.04,-0.09,1.03,-0.23,1.19,1.67,0.46,0.14,-0.43,81.24,2.44,-5.04
453,2089,101133,824,4898,0,0,0,0,0.00,0.00,0.00,-0.04,-0.09,1.04,-0.27,1.23,1.68,0.46,0.14,-0.44,81.93,2.40,-5.14
454,2090,101136,828,4882,0,0,0,0,0.00,0.00,0.00,-0.04,-0.09,1.03,-0.41,1.10,1.73,0.47,0.13,-0.44,82.58,2.49,-5.16
455,2090,101139,831,4873,0,0,0,0,0.00,0.00,0.00,-0.04,-0.09,1.03,-0.25,1.17,1.75,0.45,0.14,-0.44,81.40,2.38,-5.16
456,2091,101136,833,4887,0,0,0,0,0.00,0.00,0.00,-0.04,-0.09,1.03,-0.59,1.02,1.61,0.46,0.14,-0.44,82.01,2.37,-5.15
457,2090,101136,833,4902,0,0,0,0,0.00,0.00,0.00,-0.04,-0.09,1.04,-0.45,1.11,1.78,0.47,0.14,-0.43,82.26,2.43,-5.15
458,2092,101136,831,4907,0,0,0,0,0.00,0.00,0.00,-0.04,-0.09,1.04,-0.57,1.20,1.88,0.46,0.14,-0.44,81.65,2.28,-5.04
459,2092,101137,833,4905,0,0,0,0,0.00,0.00,0.00,-0.05,-0.09,1.04,-0.04,1.10,1.83,0.46,0.14,-0.44,82.13,2.59,-5.07
460,2090,101136,835,4905,0,0,0,0,0.00,0.00,0.00,-0.04,-0.09,1.03,-0.21,1.29,1.80,0.46,0.14,-0.44,81.23,2.37,-5.10
461,2088,101135,835,4907,0,0,0,0,0.00,0.00,0.00,-0.04,-0.11,1.04,-0.41,1.24,1.75,0.47,0.15,-0.44,80.75,2.41,-5.96
462,2088,101135,837,4907,0,0,0,0,0.00,0.00,0.00,-0.04,-0.09,1.04,-0.51,1.44,1.64,0.47,0.14,-0.44,81.35,2.42,-5.18
463,2087,101135,840,4907,0,0,0,0,0.00,0.00,0.00,-0.04,-0.09,1.03,-0.22,1.23,1.50,0.46,0.15,-0.45,80.08,2.41,-5.04
464,2092,101132,839,4910,0,0,0,0,0.00,0.00,0.00,-0.04,-0.09,1.03,-0.31,1.15,1.79,0.47,0.14,-0.44,81.93,2.30,-5.07
465,2093,101140,839,4910,0,0,0,0,0.00,0.00,0.00,-0.05,-0.09,1.04,-0.27,1.14,1.74,0.46,0.14,-0.44,81.55,2.53,-5.03
466,2098,101133,837,4920,0,0,0,0,0.00,0.00,0.00,-0.04,-0.09,1.04,-0.38,1.15,1.70,0.46,0.14,-0.44,81.17,2.20,-5.14
467,2098,101137,837,4927,0,0,0,0,0.00,0.00,0.00,-0.05,-0.09,1.04,-0.22,1.17,1.73,0.47,0.15,-0.44,80.94,2.53,-5.01
468,2097,101136,835,4927,0,0,0,0,0.00,0.00,0.00,-0.05,-0.09,1.04,-0.15,1.18,3.70,0.46,0.15,-0.44,80.76,2.55,-5.08
469,2097,101137,833,4940,0,0,0,0,0.00,0.00,0.00,-0.04,-0.09,1.03,-0.19,1.16,1.60,0.47,0.14,-0.45,81.55,2.42,-5.21
470,2099,101136,832,4952,0,0,0,0,0.00,0.00,0.00,-0.04,-0.09,1.03,-0.31,1.14,1.74,0.46,0.15,-0.44,81.05,2.43,-5.17
471,2099,101140,831,4959,0,0,0,0,0.00,0.00,0.00,-0.04,-0.09,1.03,-0.24,1.17,1.59,0.47,0.14,-0.45,81.84,2.37,-5.14
472,2100,101138,829,4959,0,0,0,0,0.00,0.00,0.00,-0.05,-0.09,1.03,-0.29,1.17,1.73,0.46,0.14,-0.44,81.67,2.53,-5.16
473,2101,101140,831,4942,0,0,0,0,0.00,0.00,0.00,-0.05,-0.09,1.03,-0.34,1.32,1.68,0.46,0.14,-0.44,81.44,2.54,-5.11
474,2102,101137,833,4927,0,0,0,0,0.00,0.00,0.00,-0.04,-0.09,1.03,-0.43,1.23,1.73,0.47,0.14,-0.45,81.73,2.43,-5.20
475,2096,101134,837,4915,0,0,0,0,0.00,0.00,0.00,-0.04,-0.09,1.03,-0.23,1.17,1.95,0.47,0.14,-0.43,81.67,2.45,-5.09
476,2082,101133,837,4920,0,0,0,0,0.00,0.00,0.00,-0.04,-0.09,1.03,-0.58,1.26,1.84,0.46,0.15,-0.44,81.07,2.37,-5.09
477,2077,101139,837,4927,0,0,0,0,0.00,0.00,0.00,-0.04,-0.09,1.03,-0.25,1.28,1.91,0.47,0.15,-0.44,81.30,2.40,-5.16
478,2069,101141,835,4932,0,0,0,0,0.00,0.00,0.00,-0.04,-0.09,1.03,-0.37,1.11,1.70,0.46,0.15,-0.44,80.51,2.32,-5.04
479,2065,101134,833,4940,0,0,0,0,0.00,0.00,0.00,-0.05,-0.09,1.03,-0.30,1.12,1.91,0.47,0.14,-0.45,81.33,2.49,-5.12
480,2059,101133,833,4934,0,0,0,0,0.00,0.00,0.00,-0.05,-0.09,1.04,-0.12,1.45,1.67,0.46,0.15,-0.44,81.14,2.61,-5.15
481,2053,101135,837,4929,0,0,0,0,0.00,0.00,0.00,-0.04,-0.09,1.04,-0.31,1.20,1.67,0.46,0.15,-0.45,81.07,2.27,-5.04
482,2045,101133,839,4922,0,0,0,0,0.00,0.00,0.00,-0.04,-0.09,1.03,-0.19,1.14,1.92,0.47,0.14,-0.44,82.38,2.43,-5.08
483,2045,101134,843,4895,0,0,0,0,0.00,0.00,0.00,-0.04,-0.09,1.03,-0.30,1.13,1.72,0.47,0.15,-0.44,81.28,2.38,-5.15
484,2048,101136,845,4885,0,0,0,0,0.00,0.00,0.00,-0.04,-0.09,1.04,-0.45,1.06,1.74,0.46,0.14,-0.44,81.51,2.40,-5.10
485,2050,101137,848,4885,0,0,0,0,0.00,0.00,0.00,-0.05,-0.09,1.04,-0.34,1.32,1.82,0.46,0.15,-0.46,81.17,2.52,-5.09
486,2048,101136,848,4885,0,0,0,0,0.00,0.00,0.00,-0.04,-0.09,1.03,-0.45,1.29,1.73,0.47,0.15,-0.45,80.48,2.30,-5.20
487,2045,101137,851,4875,0,0,0,0,0.00,0.00,0.00,-0.04,-0.09,1.03,-0.39,1.26,1.73,0.46,0.14,-0.45,81.38,2.27,-5.04
488,2038,101137,855,4855,0,0,0,0,0.00,0.00,0.00,-0.04,-0.08,1.03,-0.26,1.11,1.73,0.46,0.14,-0.45,81.40,2.42,-4.34
489,2037,101133,857,4838,0,0,0,0,0.00,0.00,0.00,-0.04,-0.09,1.04,-0.34,1.14,1.73,0.46,0.15,-0.46,81.17,2.46,-5.04
490,2038,101135,858,4840,0,0,0,0,0.00,0.00,0.00,-0.05,-0.09,1.03,-0.25,1.23,1.69,0.46,0.15,-0.44,80.41,2.50,-5.13
491,2035,101138,862,4833,0,0,0,0,0.00,0.00,0.00,-0.04,-0.09,1.04,-0.37,1.07,1.76,0.46,0.15,-0.45,80.33,2.47,-5.06
492,2039,101136,861,4830,0,0,0,0,0.00,0.00,0.00,-0.04,-0.09,1.04,-0.17,1.19,1.77,0.46,0.15,-0.45,80.74,2.36,-5.14
493,2039,101138,865,4811,0,0,0,0,0.00,0.00,0.00,-0.05,-0.09,1.03,-0.68,1.21,1.83,0.47,0.14,-0.44,81.59,2.66,-5.06
494,2036,101135,866,4805,0,0,0,0,0.00,0.00,0.00,-0.05,-0.09,1.04,-0.31,1.21,1.60,0.47,0.15,-0.44,80.48,2.53,-5.12
495,2034,101135,865,4811,0,0,0,0,0.00,0.00,0.00,-0.04,-0.09,1.03,-0.39,1.25,1.70,0.47,0.15,-0.45,80.81,2.42,-5.16
496,2025,101140,863,4811,0,0,0,0,0.00,0.00,0.00,-0.04,-0.09,1.03,-0.22,1.33,1.50,0.47,0.15,-0.44,81.10,2.41,-5.09
497,2026,101135,865,4813,0,0,0,0,0.00,0.00,0.00,-0.05,-0.09,1.03,-0.27,1.14,1.88,0.46,0.15,-0.44,80.85,2.49,-5.09
498,2029,101135,865,4811,0,0,0,0,0.00,0.00,0.00,-0.04,-0.09,1.03,-0.28,1.17,1.62,0.46,0.15,-0.45,80.61,2.41,-5.05
499,2026,101137,865,4813,0,0,0,0,0.00,0.00,0.00,-0.04,-0.09,1.03,-0.28,1.07,1.73,0.47,0.15,-0.45,80.79,2.41,-5.11
500,2027,101142,865,4813,0,0,0,0,0.00,0.00,0.00,-0.04,-0.09,1.04,-0.16,1.26,1.61,0.46,0.14,-0.45,81.65,2.32,-5.02
501,2027,101133,865,4808,0,0,0,0,0.00,0.00,0.00,-0.04,-0.09,1.04,-0.16,1.34,1.70,0.47,0.14,-0.45,81.96,2.34,-5.12
502,2030,101140,865,4801,0,0,0,0,0.00,0.00,0.00,-0.04,-0.09,1.04,-0.32,1.19,1.66,0.46,0.15,-0.44,80.46,2.34,-5.18
503,2033,101137,866,4791,0,0,0,0,0.00,0.00,0.00,-0.04,-0.09,1.03,-0.51,0.93,1.62,0.47,0.15,-0.46,80.89,2.45,-5.00
504,2038,101136,865,4788,0,0,0,0,0.00,0.00,0.00,-0.05,-0.09,1.04,-0.47,1.13,1.90,0.46,0.14,-0.45,81.75,2.48,-5.00
505,2038,101137,865,4786,0,0,0,0,0.00,0.00,0.00,-0.04,-0.09,1.03,-0.16,1.22,1.87,0.46,0.14,-0.45,81.21,2.43,-5.24
506,2043,101138,868,4779,0,0,0,0,0.00,0.00,0.00,-0.04,-0.09,1.04,-0.25,1.23,2.03,0.46,0.14,-0.45,81.88,2.38,-5.05
507,2040,101137,869,4774,0,0,0,0,0.00,0.00,0.00,-0.04,-0.09,1.04,-0.27,1.11,1.82,0.46,0.15,-0.44,80.73,2.34,-5.04
508,2041,101137,872,4776,0,0,0,0,0.00,0.00,0.00,-0.05,-0.08,1.03,-0.56,1.19,1.85,0.47,0.15,-0.45,81.18,2.50,-4.35
509,2038,101131,872,4771,0,0,0,0,0.00,0.00,0.00,-0.04,-0.09,1.04,-0.25,0.95,1.83,0.46,0.15,-0.44,80.23,2.34,-5.12
510,2040,101135,870,4781,0,0,0,0,0.00,0.00,0.00,-0.04,-0.09,1.04,-0.31,1.23,1.80,0.46,0.15,-0.45,80.95,2.46,-5.04
511,2039,101133,869,4781,0,0,0,0,0.00,0.00,0.00,-0.04,-0.09,1.03,-0.13,1.14,1.76,0.47,0.14,-0.44,81.59,2.39,-5.13
512,2042,101138,869,4783,0,0,0,0,0.00,0.00,0.00,-0.04,-0.09,1.03,-0.31,1.35,1.69,0.48,0.14,-0.44,81.76,2.47,-5.16
513,2043,101134,869,4793,0,0,0,0,0.00,0.00,0.00,-0.04,-0.09,1.04,-0.22,1.29,1.54,0.47,0.14,-0.45,81.42,2.45,-5.22
514,2047,101138,868,4788,0,0,0,0,0.00,0.00,0.00,-0.04,-0.09,1.03,-0.28,1.11,1.84,0.47,0.15,-0.44,81.16,2.42,-5.10
515,2048,101136,866,4779,0,0,0,0,0.00,0.00,0.00,-0.04,-0.09,1.04,-0.20,1.34,1.62,0.46,0.14,-0.45,81.84,2.44,-5.11
516,2055,101134,865,4771,0,0,0,0,0.00,0.00,0.00,-0.04,-0.09,1.04,-0.35,1.11,1.84,0.46,0.14,-0.45,81.29,2.47,-5.12
517,2053,101141,863,4783,0,0,0,0,0.00,0.00,0.00,-0.06,-0.09,1.04,-0.28,1.08,1.77,0.47,0.14,-0.45,81.42,3.32,-5.11
518,2060,101136,861,4788,0,0,0,0,0.00,0.00,0.00,-0.04,-0.09,1.03,-0.30,1.06,1.73,0.47,0.14,-0.45,81.75,2.37,-5.06
519,2062,101138,861,4803,0,0,0,0,0.00,0.00,0.00,-0.04,-0.09,1.03,-0.41,1.02,1.45,0.47,0.14,-0.45,81.64,2.43,-5.13
520,2064,101136,859,4793,0,0,0,0,0.00,0.00,0.00,-0.04,-0.09,1.03,-0.30,1.08,1.70,0.47,0.14,-0.45,81.75,2.35,-5.05
521,2065,101138,858,4788,0,0,0,0,0.00,0.00,0.00,-0.04,-0.09,1.04,-0.33,1.20,1.72,0.47,0.15,-0.45,81.50,2.33,-5.11
