SAMPLE NUMBER, INTERNAL TEMPERATURE, PRESSURE, EXTERNAL TEMPERATURE, HUMIDITY, TIME(HOURS), TIME(MINUTES), TIME(SECONDS), GPS FIX (SATS), LONGITUDE, LATITUDE, ALTITUDE, ACCELERATION IN X, ACCELERATION IN Y, ACCELERATION IN Z, ROTATION IN X, ROTATION IN Y, ROTATION IN Z, MAGNETIC FIELD STRENGTH IN X, MAGNETIC FIELD STRENGTH IN Y, MAGNETIC FIELD STRENGTH IN Z, HEADING, PITCH, ROLL
1,1931,101127,2644,977,0,0,0,0,0.00,0.00,0.00,-0.01,0.00,1.04,-0.73,1.92,0.87,0.05,0.13,-0.45,30.18,0.82,0.05
2,1933,101128,2644,1013,0,0,0,0,0.00,0.00,0.00,-0.01,0.03,1.02,0.50,2.02,1.26,0.07,0.10,-0.45,45.09,0.64,1.47
3,1933,101129,2642,1086,0,0,0,0,0.00,0.00,0.00,-0.01,0.02,1.03,0.44,2.13,0.93,0.07,0.10,-0.44,41.75,0.67,1.33
4,1934,101126,2642,1114,0,0,0,0,0.00,0.00,0.00,-0.01,0.02,1.03,0.57,2.28,1.03,0.06,0.11,-0.44,37.66,0.63,1.33
5,1934,101126,2641,1115,0,0,0,0,0.00,0.00,0.00,-0.02,0.03,1.05,0.37,2.23,1.00,0.06,0.11,-0.43,37.53,0.88,1.67
6,1934,101129,2639,1111,0,0,0,0,0.00,0.00,0.00,-0.01,0.02,1.03,0.28,2.12,1.02,0.06,0.11,-0.43,36.39,0.70,1.32
7,1934,101126,2638,1019,0,0,0,0,0.00,0.00,0.00,-0.01,0.02,1.03,0.38,2.09,1.02,0.06,0.11,-0.42,37.58,0.54,1.37
8,1934,101126,2638,990,0,0,0,0,0.00,0.00,0.00,-0.01,0.03,1.02,0.53,2.06,1.31,0.06,0.11,-0.43,39.33,0.67,1.49
9,1934,101126,2637,974,0,0,0,0,0.00,0.00,0.00,-0.03,0.01,1.09,0.70,1.97,1.11,0.06,0.11,-0.43,38.07,1.81,0.70
10,1935,101124,2637,974,0,0,0,0,0.00,0.00,0.00,-0.01,0.04,1.04,0.50,2.03,1.25,0.06,0.11,-0.42,37.82,0.30,2.19
11,1935,101124,2637,989,0,0,0,0,0.00,0.00,0.00,-0.01,0.02,1.03,0.61,2.06,1.11,0.06,0.11,-0.42,38.69,0.75,1.35
12,1936,101128,2635,996,0,0,0,0,0.00,0.00,0.00,-0.01,0.02,1.04,0.51,2.31,1.11,0.06,0.11,-0.43,38.75,0.59,1.33
13,1936,101125,2635,1004,0,0,0,0,0.00,0.00,0.00,-0.01,0.02,1.04,0.54,2.05,0.82,0.06,0.11,-0.42,37.48,0.80,1.34
14,1937,101124,2635,989,0,0,0,0,0.00,0.00,0.00,-0.01,0.03,1.05,0.57,2.25,1.28,0.06,0.11,-0.42,39.43,0.41,1.57
15,1937,101123,2633,952,0,0,0,0,0.00,0.00,0.00,-0.01,0.02,1.02,0.43,2.08,0.96,0.07,0.11,-0.43,39.75,0.57,1.25
16,1939,101126,2631,950,0,0,0,0,0.00,0.00,0.00,-0.01,0.03,1.04,0.44,2.12,1.24,0.06,0.11,-0.42,38.20,0.76,1.49
17,1939,101125,2631,953,0,0,0,0,0.00,0.00,0.00,-0.01,0.04,1.01,0.28,2.36,1.16,0.07,0.12,-0.43,38.05,0.74,2.02
18,1939,101124,2631,960,0,0,0,0,0.00,0.00,0.00,-0.01,0.03,1.03,0.55,2.20,1.08,0.06,0.11,-0.42,38.69,0.45,1.67
19,1939,101125,2631,965,0,0,0,0,0.00,0.00,0.00,-0.01,0.02,1.04,0.49,2.31,1.03,0.06,0.11,-0.43,38.82,0.59,1.24
20,1941,101125,2631,968,0,0,0,0,0.00,0.00,0.00,-0.01,0.02,1.03,0.24,2.06,1.04,0.06,0.11,-0.43,38.01,0.42,1.19
21,1941,101123,2631,968,0,0,0,0,0.00,0.00,0.00,-0.01,0.02,1.03,0.43,2.34,0.96,0.06,0.11,-0.42,37.93,0.67,1.37
22,1942,101123,2631,960,0,0,0,0,0.00,0.00,0.00,-0.01,0.02,1.03,0.41,2.15,0.95,0.06,0.11,-0.43,36.56,0.77,1.29
23,1943,101126,2630,929,0,0,0,0,0.00,0.00,0.00,-0.01,0.03,1.03,0.53,2.36,1.15,0.06,0.11,-0.42,39.23,0.38,1.53
24,1945,101126,2627,920,0,0,0,0,0.00,0.00,0.00,-0.01,0.04,1.01,0.47,2.40,1.11,0.07,0.11,-0.42,38.86,0.62,2.27
25,1945,101124,2626,916,0,0,0,0,0.00,0.00,0.00,-0.01,0.02,1.03,0.62,2.20,1.29,0.06,0.11,-0.42,38.19,0.80,1.34
26,1947,101125,2626,916,0,0,0,0,0.00,0.00,0.00,-0.01,0.03,1.03,0.67,2.21,0.89,0.07,0.11,-0.42,39.02,0.78,1.52
27,1948,101122,2624,919,0,0,0,0,0.00,0.00,0.00,-0.01,0.03,1.02,0.43,2.09,1.07,0.06,0.11,-0.42,38.31,0.62,1.51
28,1950,101128,2624,920,0,0,0,0,0.00,0.00,0.00,-0.02,0.02,1.05,0.34,2.17,0.88,0.06,0.11,-0.42,37.58,0.95,1.14
29,1950,101124,2626,933,0,0,0,0,0.00,0.00,0.00,-0.01,0.02,1.03,0.37,2.27,1.12,0.06,0.11,-0.43,38.76,0.73,1.34
30,1952,101125,2624,942,0,0,0,0,0.00,0.00,0.00,-0.01,0.02,1.03,0.40,1.97,0.94,0.06,0.11,-0.42,37.20,0.45,1.26
31,1951,101128,2624,953,0,0,0,0,0.00,0.00,0.00,-0.01,0.03,1.03,0.52,2.12,1.08,0.07,0.11,-0.42,39.52,0.73,1.46
32,1954,101126,2621,911,0,0,0,0,0.00,0.00,0.00,-0.03,0.02,1.04,0.55,2.29,1.02,0.07,0.12,-0.42,37.94,1.57,1.32
33,1954,101124,2620,888,0,0,0,0,0.00,0.00,0.00,-0.01,0.02,1.04,0.68,2.14,0.99,0.07,0.11,-0.43,39.60,0.71,1.26
34,1956,101122,2617,905,0,0,0,0,0.00,0.00,0.00,-0.01,0.02,1.04,0.46,2.07,1.17,0.06,0.11,-0.42,38.18,0.78,1.33
35,1957,101124,2616,922,0,0,0,0,0.00,0.00,0.00,-0.01,0.03,1.02,0.52,2.10,1.17,0.07,0.11,-0.43,40.03,0.77,1.63
36,1960,101124,2616,928,0,0,0,0,0.00,0.00,0.00,-0.01,0.03,1.03,0.49,2.07,1.26,0.07,0.11,-0.43,39.21,0.44,1.55
37,1960,101128,2616,933,0,0,0,0,0.00,0.00,0.00,-0.01,0.03,1.02,0.71,2.16,1.30,0.06,0.11,-0.42,38.99,0.67,1.79
38,1962,101130,2615,928,0,0,0,0,0.00,0.00,0.00,-0.01,0.03,1.03,0.76,2.13,1.07,0.06,0.11,-0.42,37.63,0.79,1.45
39,1963,101131,2612,899,0,0,0,0,0.00,0.00,0.00,-0.01,0.03,1.03,0.62,2.12,0.99,0.06,0.11,-0.43,36.71,0.71,1.49
40,1965,101128,2610,904,0,0,0,0,0.00,0.00,0.00,-0.01,0.02,1.03,0.47,2.25,1.07,0.07,0.11,-0.43,38.97,0.49,1.25
41,1965,101125,2610,914,0,0,0,0,0.00,0.00,0.00,-0.01,0.03,1.03,0.58,2.19,1.15,0.07,0.11,-0.43,39.37,0.62,1.66
42,2000,101126,2610,911,0,0,0,0,0.00,0.00,0.00,-0.01,0.02,1.03,0.43,2.31,1.01,0.06,0.11,-0.42,37.54,0.64,1.17
43,2000,101128,2609,939,0,0,0,0,0.00,0.00,0.00,-0.01,0.02,1.03,0.43,2.28,1.16,0.07,0.11,-0.42,39.38,0.56,1.38
44,2003,101126,2609,938,0,0,0,0,0.00,0.00,0.00,-0.01,0.02,1.04,0.41,1.99,1.09,0.06,0.11,-0.41,39.54,0.62,1.21
45,2003,101128,2608,933,0,0,0,0,0.00,0.00,0.00,-0.01,0.03,1.03,0.31,2.39,1.35,0.06,0.11,-0.42,39.18,0.77,1.45
46,2005,101129,2608,933,0,0,0,0,0.00,0.00,0.00,-0.01,0.03,1.03,0.40,2.20,1.14,0.06,0.11,-0.42,37.86,0.72,1.53
47,2006,101128,2608,963,0,0,0,0,0.00,0.00,0.00,-0.01,0.02,1.03,0.57,2.36,1.20,0.07,0.11,-0.43,39.66,0.51,1.33
48,2007,101125,2608,947,0,0,0,0,0.00,0.00,0.00,-0.01,0.02,1.03,0.41,2.21,0.97,0.06,0.11,-0.43,37.26,0.66,1.27
49,2008,101128,2605,925,0,0,0,0,0.00,0.00,0.00,-0.01,0.03,1.04,0.41,2.36,1.05,0.06,0.11,-0.43,37.93,0.58,1.52
50,2009,101122,2605,939,0,0,0,0,0.00,0.00,0.00,-0.01,0.02,1.04,0.52,2.36,1.16,0.06,0.11,-0.43,36.16,0.63,1.19
51,2010,101125,2605,946,0,0,0,0,0.00,0.00,0.00,-0.01,0.02,1.03,0.49,2.11,0.94,0.06,0.11,-0.43,36.94,0.50,1.21
52,2012,101128,2605,959,0,0,0,0,0.00,0.00,0.00,-0.02,0.02,1.04,0.53,2.28,1.08,0.06,0.12,-0.42,34.81,0.93,1.18
53,2012,101125,2605,957,0,0,0,0,0.00,0.00,0.00,-0.01,0.02,1.03,0.61,2.11,1.00,0.06,0.11,-0.43,38.06,0.61,1.37
54,2014,101129,2605,955,0,0,0,0,0.00,0.00,0.00,-0.01,0.03,1.03,0.56,2.02,1.08,0.06,0.11,-0.43,37.29,0.71,1.46
55,2014,101127,2605,947,0,0,0,0,0.00,0.00,0.00,-0.01,0.02,1.03,0.55,2.23,1.09,0.06,0.11,-0.43,38.09,0.64,1.20
56,2017,101129,2605,947,0,0,0,0,0.00,0.00,0.00,-0.01,0.03,1.04,0.49,2.31,0.99,0.06,0.11,-0.42,38.43,0.68,1.43
57,2017,101130,2605,946,0,0,0,0,0.00,0.00,0.00,-0.01,0.03,1.03,0.61,2.12,1.15,0.06,0.11,-0.42,37.66,0.65,1.49
58,2019,101129,2606,947,0,0,0,0,0.00,0.00,0.00,-0.01,0.02,1.05,0.84,2.35,1.17,0.06,0.11,-0.42,36.84,0.80,1.24
59,2019,101128,2606,941,0,0,0,0,0.00,0.00,0.00,-0.01,0.02,1.04,0.34,1.92,0.97,0.06,0.11,-0.42,36.88,0.55,1.37
60,2021,101126,2606,947,0,0,0,0,0.00,0.00,0.00,-0.01,0.03,1.04,0.49,2.06,1.14,0.06,0.11,-0.42,38.20,0.74,1.50
61,2021,101129,2608,980,0,0,0,0,0.00,0.00,0.00,-0.01,0.02,1.04,0.50,2.21,1.06,0.06,0.11,-0.42,37.98,0.80,1.29
62,2023,101127,2606,1008,0,0,0,0,0.00,0.00,0.00,-0.01,0.03,1.04,0.55,2.21,0.97,0.06,0.12,-0.43,35.36,0.71,1.44
63,2023,101125,2606,1048,0,0,0,0,0.00,0.00,0.00,-0.01,0.03,1.03,0.68,2.10,1.17,0.06,0.12,-0.42,37.45,0.69,1.50
64,2024,101127,2606,1002,0,0,0,0,0.00,0.00,0.00,-0.01,0.02,1.04,0.57,2.28,0.84,0.06,0.12,-0.42,36.97,0.70,1.27
65,2025,101125,2608,996,0,0,0,0,0.00,0.00,0.00,-0.01,0.03,1.04,0.42,2.19,1.11,0.06,0.11,-0.43,36.67,0.72,1.47
66,2026,101125,2608,992,0,0,0,0,0.00,0.00,0.00,-0.01,0.02,1.03,0.54,2.10,1.08,0.05,0.12,-0.42,33.06,0.78,1.30
67,2027,101127,2605,965,0,0,0,0,0.00,0.00,0.00,-0.01,0.02,1.03,0.64,2.47,1.13,0.06,0.12,-0.43,34.11,0.57,1.36
68,2028,101126,2604,971,0,0,0,0,0.00,0.00,0.00,-0.01,0.03,1.03,0.48,2.29,1.04,0.06,0.12,-0.42,35.23,0.58,1.43
69,2028,101127,2604,965,0,0,0,0,0.00,0.00,0.00,-0.01,0.03,1.03,0.56,2.15,1.13,0.05,0.11,-0.43,33.87,0.66,1.51
70,2029,101126,2605,966,0,0,0,0,0.00,0.00,0.00,-0.01,0.02,1.03,0.59,2.19,1.04,0.06,0.11,-0.42,36.93,0.58,1.27
71,2030,101124,2605,956,0,0,0,0,0.00,0.00,0.00,-0.01,0.02,1.03,0.47,2.20,1.35,0.06,0.12,-0.42,36.80,0.75,1.28
72,2032,101127,2605,965,0,0,0,0,0.00,0.00,0.00,-0.01,0.03,1.04,0.56,2.19,1.05,0.06,0.12,-0.42,36.08,0.71,1.68
73,2031,101126,2605,971,0,0,0,0,0.00,0.00,0.00,-0.01,0.03,1.02,0.54,2.09,1.07,0.06,0.12,-0.41,34.64,0.57,1.63
74,2032,101128,2605,972,0,0,0,0,0.00,0.00,0.00,-0.01,0.02,1.03,0.32,2.36,1.17,0.07,0.12,-0.43,37.41,0.58,1.39
75,2032,101126,2605,992,0,0,0,0,0.00,0.00,0.00,-0.02,0.01,1.03,0.54,2.17,1.16,0.06,0.12,-0.43,35.95,1.06,0.80
76,2033,101126,2606,993,0,0,0,0,0.00,0.00,0.00,-0.01,0.03,1.03,0.53,2.04,1.37,0.06,0.11,-0.43,36.85,0.68,1.49
77,2034,101126,2606,972,0,0,0,0,0.00,0.00,0.00,-0.01,0.02,1.03,0.22,2.18,0.98,0.06,0.12,-0.42,36.30,0.63,1.16
78,2036,101126,2604,920,0,0,0,0,0.00,0.00,0.00,-0.01,0.01,1.04,0.26,2.14,1.00,0.06,0.12,-0.43,34.54,0.79,0.74
79,2036,101128,2602,895,0,0,0,0,0.00,0.00,0.00,-0.01,0.01,1.05,0.34,2.01,1.17,0.06,0.13,-0.43,35.37,0.73,0.81
80,2037,101124,2599,889,0,0,0,0,0.00,0.00,0.00,-0.01,0.02,1.04,0.42,2.26,1.04,0.06,0.12,-0.42,35.50,0.70,1.20
81,2038,101132,2599,928,0,0,0,0,0.00,0.00,0.00,-0.01,0.03,1.04,0.46,2.23,0.94,0.06,0.12,-0.43,35.33,0.69,1.47
82,2039,101126,2599,963,0,0,0,0,0.00,0.00,0.00,-0.01,0.02,1.03,0.49,2.14,1.12,0.06,0.12,-0.46,37.21,0.60,1.37
83,2039,101125,2601,969,0,0,0,0,0.00,0.00,0.00,-0.01,0.03,1.02,0.94,2.24,1.21,0.06,0.12,-0.43,36.43,0.60,1.64
84,2041,101128,2601,965,0,0,0,0,0.00,0.00,0.00,-0.01,0.03,1.03,0.49,2.26,1.06,0.06,0.12,-0.42,34.30,0.60,1.42
85,2041,101125,2601,972,0,0,0,0,0.00,0.00,0.00,-0.01,0.03,1.03,0.43,2.18,0.97,0.06,0.11,-0.42,36.47,0.82,1.42
86,2043,101126,2602,982,0,0,0,0,0.00,0.00,0.00,-0.02,0.03,1.03,0.46,2.15,1.17,0.06,0.12,-0.43,35.98,0.84,1.43
87,2043,101127,2601,992,0,0,0,0,0.00,0.00,0.00,-0.01,0.02,1.04,0.51,2.03,1.34,0.06,0.11,-0.42,38.00,0.79,1.28
88,2045,101129,2602,972,0,0,0,0,0.00,0.00,0.00,-0.01,0.02,1.04,0.52,2.33,1.11,0.06,0.12,-0.42,35.06,0.78,1.33
89,2045,101129,2602,952,0,0,0,0,0.00,0.00,0.00,-0.01,0.03,1.03,0.52,2.23,0.94,0.06,0.12,-0.43,35.95,0.57,1.58
90,2047,101125,2602,957,0,0,0,0,0.00,0.00,0.00,-0.01,0.03,1.03,0.58,2.03,1.42,0.07,0.12,-0.43,38.18,0.64,1.48
91,2047,101127,2602,965,0,0,0,0,0.00,0.00,0.00,-0.01,0.03,1.03,0.55,2.10,1.11,0.06,0.12,-0.43,36.44,0.75,1.49
92,2048,101128,2601,959,0,0,0,0,0.00,0.00,0.00,-0.01,0.02,1.04,0.42,2.12,0.95,0.07,0.11,-0.43,38.30,0.77,1.27
93,2049,101127,2599,963,0,0,0,0,0.00,0.00,0.00,-0.01,0.02,1.02,0.45,2.24,1.26,0.06,0.12,-0.43,35.86,0.66,1.13
94,2050,101128,2604,979,0,0,0,0,0.00,0.00,0.00,-0.01,0.02,1.00,0.31,2.21,1.15,0.06,0.12,-0.43,35.60,0.56,1.21
95,2050,101128,2601,942,0,0,0,0,0.00,0.00,0.00,-0.01,0.03,1.01,0.39,2.24,1.26,0.07,0.12,-0.42,38.30,0.44,1.87
96,2052,101124,2599,925,0,0,0,0,0.00,0.00,0.00,-0.02,0.03,1.03,0.50,2.13,1.11,0.06,0.11,-0.42,38.02,0.87,1.40
97,2052,101125,2599,947,0,0,0,0,0.00,0.00,0.00,-0.01,0.02,1.08,0.48,2.19,1.23,0.07,0.12,-0.42,39.07,0.78,0.90
98,2054,101125,2601,950,0,0,0,0,0.00,0.00,0.00,-0.01,0.02,1.02,0.18,2.28,1.11,0.07,0.11,-0.43,38.26,0.82,1.13
99,2054,101125,2599,956,0,0,0,0,0.00,0.00,0.00,-0.02,0.02,1.01,0.52,2.24,1.19,0.07,0.11,-0.42,38.47,0.87,1.34
100,2056,101128,2599,949,0,0,0,0,0.00,0.00,0.00,-0.01,0.03,1.02,0.58,2.14,1.14,0.06,0.11,-0.43,37.63,0.81,1.62
101,2056,101128,2599,938,0,0,0,0,0.00,0.00,0.00,-0.02,0.02,1.03,0.68,2.24,1.13,0.06,0.11,-0.42,35.97,1.03,0.96
102,2058,101129,2599,942,0,0,0,0,0.00,0.00,0.00,-0.02,0.03,1.04,0.69,2.42,1.07,0.06,0.12,-0.42,33.55,0.96,1.52
103,2058,101128,2601,947,0,0,0,0,0.00,0.00,0.00,-0.01,0.03,1.04,0.44,2.21,1.25,0.06,0.11,-0.42,38.33,0.67,1.44
104,2060,101128,2601,942,0,0,0,0,0.00,0.00,0.00,-0.01,0.03,1.03,0.64,2.15,1.17,0.06,0.11,-0.42,37.88,0.75,1.45
105,2060,101127,2599,922,0,0,0,0,0.00,0.00,0.00,-0.01,0.02,1.03,0.61,2.27,1.13,0.06,0.11,-0.42,36.29,0.64,1.20
106,2062,101126,2599,919,0,0,0,0,0.00,0.00,0.00,-0.01,0.03,1.03,0.55,2.13,1.02,0.06,0.11,-0.43,37.30,0.67,1.45
107,2062,101128,2598,939,0,0,0,0,0.00,0.00,0.00,-0.01,0.03,1.03,0.46,2.21,1.16,0.06,0.12,-0.42,36.07,0.68,1.47
108,2063,101126,2598,947,0,0,0,0,0.00,0.00,0.00,-0.02,0.02,1.03,0.31,2.21,1.14,0.06,0.12,-0.43,37.56,0.84,1.29
109,2063,101128,2599,950,0,0,0,0,0.00,0.00,0.00,-0.01,0.02,1.04,0.42,2.16,0.89,0.06,0.12,-0.43,34.76,0.64,1.18
110,2066,101129,2601,957,0,0,0,0,0.00,0.00,0.00,-0.01,0.02,1.03,0.70,2.39,1.17,0.06,0.11,-0.43,38.17,0.65,1.37
111,2066,101126,2601,962,0,0,0,0,0.00,0.00,0.00,-0.02,0.02,1.02,0.56,2.29,1.15,0.05,0.12,-0.43,34.05,0.88,1.38
112,2067,101129,2599,956,0,0,0,0,0.00,0.00,0.00,-0.01,0.03,1.04,0.46,2.30,1.18,0.06,0.11,-0.42,37.35,0.66,1.54
113,2067,101125,2601,950,0,0,0,0,0.00,0.00,0.00,-0.02,0.03,1.03,0.48,2.20,1.16,0.07,0.12,-0.42,38.78,0.84,1.47
114,2069,101122,2599,933,0,0,0,0,0.00,0.00,0.00,-0.03,0.02,1.05,0.22,2.12,1.26,0.06,0.12,-0.42,37.49,1.42,1.13
115,2070,101125,2599,932,0,0,0,0,0.00,0.00,0.00,-0.01,0.02,1.03,0.63,2.10,1.11,0.06,0.12,-0.42,35.71,0.60,1.36
116,2072,101128,2599,941,0,0,0,0,0.00,0.00,0.00,-0.01,0.03,1.03,0.48,2.33,0.87,0.06,0.12,-0.43,37.56,0.57,1.66
117,2072,101125,2601,960,0,0,0,0,0.00,0.00,0.00,-0.02,0.02,1.03,0.50,2.13,1.05,0.07,0.12,-0.41,38.57,0.86,1.32
118,2074,101126,2601,959,0,0,0,0,0.00,0.00,0.00,-0.01,0.03,1.03,0.30,2.31,1.14,0.06,0.12,-0.42,37.41,0.79,1.47
119,2074,101127,2602,953,0,0,0,0,0.00,0.00,0.00,-0.01,0.03,1.04,0.46,2.18,0.96,0.06,0.11,-0.43,36.92,0.62,1.59
120,2076,101128,2601,947,0,0,0,0,0.00,0.00,0.00,-0.01,0.02,1.04,0.43,2.22,1.11,0.06,0.12,-0.43,37.09,0.54,1.29
121,2076,101127,2599,950,0,0,0,0,0.00,0.00,0.00,-0.01,0.02,1.08,0.82,2.34,1.16,0.06,0.12,-0.42,34.93,0.78,1.22
122,2077,101126,2599,972,0,0,0,0,0.00,0.00,0.00,-0.01,0.03,1.03,0.67,2.24,1.24,0.07,0.11,-0.42,39.01,0.79,1.45
123,2078,101127,2599,986,0,0,0,0,0.00,0.00,0.00,-0.02,0.02,1.04,0.46,2.03,0.94,0.07,0.12,-0.43,38.68,0.90,1.33
124,2079,101130,2601,980,0,0,0,0,0.00,0.00,0.00,-0.02,0.02,1.04,0.87,2.24,0.81,0.06,0.12,-0.42,36.97,0.91,1.12
125,2079,101128,2602,972,0,0,0,0,0.00,0.00,0.00,-0.02,0.03,1.03,0.72,2.22,1.34,0.06,0.12,-0.42,36.92,0.91,1.49
126,2081,101129,2602,966,0,0,0,0,0.00,0.00,0.00,-0.01,0.03,1.02,0.52,2.14,1.22,0.06,0.12,-0.42,36.15,0.57,1.85
127,2080,101131,2602,968,0,0,0,0,0.00,0.00,0.00,-0.01,0.04,1.03,0.58,2.18,1.07,0.06,0.12,-0.43,36.56,0.37,2.29
128,2082,101127,2602,966,0,0,0,0,0.00,0.00,0.00,-0.02,0.02,1.03,0.47,2.30,1.00,0.07,0.12,-0.42,37.03,0.90,1.04
129,2083,101125,2601,920,0,0,0,0,0.00,0.00,0.00,-0.01,0.03,1.03,0.61,2.25,0.98,0.06,0.12,-0.43,35.93,0.63,1.86
130,2084,101131,2598,908,0,0,0,0,0.00,0.00,0.00,-0.02,0.02,1.04,0.54,2.27,1.34,0.07,0.11,-0.42,40.53,0.90,1.01
131,2085,101128,2598,938,0,0,0,0,0.00,0.00,0.00,-0.01,0.02,1.04,0.70,2.08,1.26,0.06,0.12,-0.43,36.28,0.78,0.90
132,2086,101130,2598,959,0,0,0,0,0.00,0.00,0.00,-0.01,0.04,1.03,0.55,2.33,1.32,0.07,0.12,-0.42,38.29,0.39,2.22
133,2086,101126,2599,949,0,0,0,0,0.00,0.00,0.00,-0.01,0.02,1.03,0.42,2.11,1.30,0.06,0.12,-0.42,36.93,0.75,1.15
134,2088,101128,2598,947,0,0,0,0,0.00,0.00,0.00,-0.01,0.04,1.02,0.28,2.41,1.41,0.06,0.12,-0.41,35.77,0.39,2.04
135,2088,101124,2599,955,0,0,0,0,0.00,0.00,0.00,-0.01,0.04,1.02,0.58,2.24,1.10,0.06,0.12,-0.42,35.66,0.61,2.33
136,2090,101125,2599,953,0,0,0,0,0.00,0.00,0.00,-0.01,0.03,1.02,0.70,2.21,1.08,0.06,0.12,-0.42,35.27,0.60,1.43
137,2089,101126,2599,920,0,0,0,0,0.00,0.00,0.00,-0.01,0.03,1.04,0.60,2.16,1.08,0.07,0.11,-0.42,39.74,0.49,1.55
138,2091,101127,2598,905,0,0,0,0,0.00,0.00,0.00,-0.02,0.03,1.05,0.56,2.22,1.11,0.06,0.11,-0.42,37.89,1.13,1.62
139,2091,101128,2595,898,0,0,0,0,0.00,0.00,0.00,-0.02,0.02,1.02,0.50,2.24,1.17,0.07,0.12,-0.42,39.11,0.91,1.08
140,2093,101132,2595,897,0,0,0,0,0.00,0.00,0.00,-0.02,0.01,1.03,0.37,2.26,1.02,0.06,0.12,-0.42,35.09,0.85,0.72
141,2093,101127,2594,895,0,0,0,0,0.00,0.00,0.00,-0.01,0.04,1.03,0.57,2.36,1.10,0.07,0.12,-0.43,38.72,0.35,2.22
142,2095,101130,2592,897,0,0,0,0,0.00,0.00,0.00,-0.01,0.02,1.03,0.67,2.31,1.03,0.07,0.11,-0.43,38.14,0.63,1.27
143,2094,101127,2594,901,0,0,0,0,0.00,0.00,0.00,-0.01,0.03,1.02,0.62,2.18,1.10,0.07,0.12,-0.42,38.12,0.71,1.57
144,2096,101125,2592,901,0,0,0,0,0.00,0.00,0.00,-0.02,0.02,1.03,0.58,2.15,1.26,0.07,0.12,-0.42,38.85,0.94,1.27
145,2096,101123,2592,894,0,0,0,0,0.00,0.00,0.00,-0.01,0.02,1.04,0.47,2.03,1.19,0.06,0.11,-0.42,37.13,0.69,1.34
146,2098,101128,2591,895,0,0,0,0,0.00,0.00,0.00,-0.02,0.03,1.03,0.59,2.25,1.11,0.06,0.12,-0.42,36.16,0.84,1.48
147,2098,101127,2591,897,0,0,0,0,0.00,0.00,0.00,-0.01,0.03,1.03,0.53,2.15,1.17,0.07,0.12,-0.42,38.05,0.62,1.39
148,2099,101123,2590,908,0,0,0,0,0.00,0.00,0.00,-0.01,0.04,1.03,0.29,2.32,1.38,0.06,0.11,-0.42,37.15,0.71,2.29
149,2100,101129,2590,957,0,0,0,0,0.00,0.00,0.00,-0.01,0.03,1.04,0.42,2.45,1.18,0.06,0.11,-0.41,38.26,0.72,1.46
150,2101,101131,2591,962,0,0,0,0,0.00,0.00,0.00,-0.01,0.02,1.03,0.60,2.11,1.32,0.06,0.12,-0.42,36.14,0.61,1.32
151,2101,101133,2592,950,0,0,0,0,0.00,0.00,0.00,-0.02,0.02,1.03,0.40,2.22,1.25,0.06,0.11,-0.43,37.54,0.86,1.23
152,2103,101129,2591,946,0,0,0,0,0.00,0.00,0.00,-0.01,0.03,1.03,0.36,2.22,1.20,0.06,0.12,-0.43,35.60,0.53,1.67
153,2103,101124,2591,946,0,0,0,0,0.00,0.00,0.00,-0.01,0.03,1.03,0.52,2.41,0.97,0.06,0.11,-0.42,36.78,0.44,1.93
154,2104,101129,2591,928,0,0,0,0,0.00,0.00,0.00,-0.02,0.01,1.03,0.39,2.26,1.22,0.06,0.12,-0.43,36.86,0.96,0.67
155,2105,101131,2591,910,0,0,0,0,0.00,0.00,0.00,-0.01,0.03,1.04,0.53,2.31,1.36,0.06,0.12,-0.42,37.16,0.71,1.72
156,2106,101128,2588,897,0,0,0,0,0.00,0.00,0.00,-0.01,0.02,1.03,0.60,2.18,1.08,0.06,0.12,-0.43,35.65,0.69,1.12
157,2106,101125,2588,901,0,0,0,0,0.00,0.00,0.00,-0.02,0.02,1.03,0.57,2.24,1.13,0.06,0.11,-0.42,34.72,0.90,0.93
158,2108,101130,2587,895,0,0,0,0,0.00,0.00,0.00,-0.01,0.04,1.04,0.68,2.27,1.17,0.06,0.12,-0.43,36.44,0.62,2.08
159,2107,101128,2587,891,0,0,0,0,0.00,0.00,0.00,-0.02,0.02,1.03,0.74,2.30,1.11,0.06,0.12,-0.43,34.68,0.84,1.22
160,2109,101127,2587,914,0,0,0,0,0.00,0.00,0.00,-0.01,0.03,1.03,0.57,2.12,1.11,0.06,0.12,-0.42,34.16,0.75,1.51
161,2109,101130,2587,923,0,0,0,0,0.00,0.00,0.00,-0.01,0.02,1.03,0.50,2.12,1.14,0.06,0.12,-0.43,35.39,0.62,1.36
162,2110,101132,2587,930,0,0,0,0,0.00,0.00,0.00,-0.01,0.03,1.04,0.64,2.34,1.08,0.07,0.12,-0.42,37.99,0.62,1.48
163,2110,101133,2588,939,0,0,0,0,0.00,0.00,0.00,-0.01,0.03,1.03,0.49,2.28,1.44,0.06,0.12,-0.42,35.20,0.66,1.39
164,2111,101130,2588,939,0,0,0,0,0.00,0.00,0.00,-0.01,0.03,1.03,0.43,2.17,1.12,0.06,0.11,-0.42,36.82,0.61,1.43
165,2112,101126,2590,920,0,0,0,0,0.00,0.00,0.00,-0.01,0.03,1.04,0.60,2.26,1.23,0.07,0.12,-0.43,37.90,0.58,1.53
166,2113,101130,2587,916,0,0,0,0,0.00,0.00,0.00,-0.01,0.02,1.03,0.51,2.21,1.21,0.06,0.12,-0.42,34.66,0.63,1.32
167,2112,101127,2588,926,0,0,0,0,0.00,0.00,0.00,-0.01,0.02,1.03,0.50,2.33,1.15,0.06,0.12,-0.42,37.38,0.83,1.37
168,2114,101128,2588,938,0,0,0,0,0.00,0.00,0.00,-0.01,0.02,1.03,0.49,2.19,1.08,0.06,0.12,-0.43,35.28,0.65,1.38
169,2114,101125,2590,941,0,0,0,0,0.00,0.00,0.00,-0.01,0.02,1.03,0.43,2.15,1.17,0.05,0.11,-0.42,34.20,0.74,1.38
170,2116,101128,2588,926,0,0,0,0,0.00,0.00,0.00,-0.01,0.03,1.03,0.56,2.31,1.17,0.06,0.12,-0.42,33.63,0.77,1.49
171,2116,101129,2588,910,0,0,0,0,0.00,0.00,0.00,-0.02,0.03,1.03,0.52,2.25,1.19,0.07,0.11,-0.42,38.35,0.85,1.41
172,2117,101129,2587,916,0,0,0,0,0.00,0.00,0.00,-0.01,0.02,1.04,0.49,2.27,0.91,0.06,0.12,-0.43,34.10,0.73,1.33
173,2117,101124,2587,905,0,0,0,0,0.00,0.00,0.00,-0.01,0.03,1.03,0.37,2.13,1.13,0.06,0.12,-0.42,34.00,0.51,1.46
174,2118,101128,2587,923,0,0,0,0,0.00,0.00,0.00,-0.01,0.02,1.03,0.44,2.24,1.17,0.05,0.12,-0.43,33.51,0.83,1.36
175,2118,101125,2587,965,0,0,0,0,0.00,0.00,0.00,-0.01,0.03,1.04,0.51,2.27,1.38,0.06,0.12,-0.42,34.27,0.62,1.57
176,2120,101129,2587,968,0,0,0,0,0.00,0.00,0.00,-0.01,0.02,1.03,0.60,2.18,1.14,0.06,0.11,-0.42,35.95,0.70,1.31
177,2120,101126,2590,966,0,0,0,0,0.00,0.00,0.00,-0.01,0.02,1.04,0.58,2.34,1.18,0.07,0.12,-0.43,38.33,0.63,1.20
178,2121,101129,2590,949,0,0,0,0,0.00,0.00,0.00,-0.01,0.03,1.03,0.75,2.14,1.07,0.06,0.12,-0.43,37.30,0.81,1.51
179,2121,101125,2588,917,0,0,0,0,0.00,0.00,0.00,-0.01,0.02,1.03,0.73,2.11,1.01,0.07,0.11,-0.42,38.69,0.50,1.30
180,2123,101133,2587,914,0,0,0,0,0.00,0.00,0.00,-0.01,0.03,1.02,0.52,2.14,1.15,0.07,0.12,-0.42,38.62,0.48,1.50
181,2123,101132,2588,925,0,0,0,0,0.00,0.00,0.00,-0.01,0.03,1.03,0.61,2.29,1.17,0.06,0.12,-0.42,37.12,0.68,1.59
182,2124,101130,2588,947,0,0,0,0,0.00,0.00,0.00,-0.01,0.03,1.03,0.33,2.33,1.08,0.07,0.11,-0.43,39.96,0.65,1.41
183,2124,101132,2588,971,0,0,0,0,0.00,0.00,0.00,-0.01,0.03,1.04,0.55,2.13,0.89,0.06,0.12,-0.42,36.26,0.64,1.51
184,2125,101127,2590,963,0,0,0,0,0.00,0.00,0.00,-0.01,0.03,1.03,0.58,2.28,1.19,0.06,0.12,-0.43,37.14,0.70,1.43
185,2125,101129,2590,949,0,0,0,0,0.00,0.00,0.00,-0.02,0.03,1.02,0.66,2.09,1.26,0.06,0.11,-0.43,37.59,0.86,1.58
186,2127,101130,2590,959,0,0,0,0,0.00,0.00,0.00,-0.01,0.03,1.04,0.40,2.29,1.11,0.06,0.12,-0.43,37.48,0.79,1.42
187,2126,101128,2591,974,0,0,0,0,0.00,0.00,0.00,-0.02,0.02,1.03,0.35,2.18,1.02,0.07,0.11,-0.42,38.37,0.95,1.34
188,2128,101129,2591,974,0,0,0,0,0.00,0.00,0.00,-0.01,0.03,1.03,0.49,2.20,1.21,0.07,0.12,-0.42,38.21,0.72,1.46
189,2128,101130,2592,972,0,0,0,0,0.00,0.00,0.00,-0.01,0.02,1.03,0.55,2.39,1.03,0.06,0.11,-0.42,37.47,0.80,1.36
190,2129,101132,2591,962,0,0,0,0,0.00,0.00,0.00,-0.02,0.03,1.04,0.38,2.16,0.93,0.06,0.12,-0.42,37.65,0.92,1.81
191,2129,101130,2591,942,0,0,0,0,0.00,0.00,0.00,-0.01,0.03,1.03,0.61,2.24,1.24,0.06,0.11,-0.42,38.36,0.67,1.45
192,2131,101136,2591,935,0,0,0,0,0.00,0.00,0.00,-0.01,0.02,1.03,0.59,2.16,1.09,0.06,0.12,-0.43,36.66,0.81,1.38
193,2130,101133,2592,932,0,0,0,0,0.00,0.00,0.00,-0.01,0.03,1.03,0.70,2.24,0.93,0.07,0.12,-0.42,37.23,0.82,1.58
194,2132,101131,2591,939,0,0,0,0,0.00,0.00,0.00,-0.01,0.02,1.03,0.61,2.15,1.05,0.06,0.11,-0.42,36.82,0.57,1.29
195,2132,101129,2592,946,0,0,0,0,0.00,0.00,0.00,-0.01,0.02,1.04,0.43,2.15,1.20,0.06,0.12,-0.41,35.54,0.82,1.30
196,2133,101129,2591,930,0,0,0,0,0.00,0.00,0.00,-0.01,0.03,1.02,0.73,2.13,1.16,0.06,0.12,-0.42,35.36,0.61,1.48
197,2133,101131,2591,923,0,0,0,0,0.00,0.00,0.00,-0.01,0.03,1.02,0.76,2.26,0.88,0.07,0.12,-0.42,38.41,0.74,1.41
198,2134,101132,2591,925,0,0,0,0,0.00,0.00,0.00,-0.01,0.02,1.04,0.58,2.22,1.12,0.07,0.12,-0.43,38.86,0.69,1.23
199,2134,101129,2590,906,0,0,0,0,0.00,0.00,0.00,-0.01,0.03,1.03,0.49,2.16,1.18,0.07,0.12,-0.42,37.96,0.67,1.52
200,2136,101132,2590,899,0,0,0,0,0.00,0.00,0.00,-0.01,0.02,1.03,0.63,2.19,0.87,0.06,0.11,-0.42,37.79,0.78,1.34
201,2135,101131,2587,899,0,0,0,0,0.00,0.00,0.00,-0.01,0.02,1.05,0.61,2.13,1.29,0.07,0.11,-0.43,39.06,0.63,1.36
202,2136,101130,2587,911,0,0,0,0,0.00,0.00,0.00,-0.02,0.03,1.04,0.74,2.04,1.35,0.06,0.12,-0.42,35.07,1.05,1.57
203,2136,101129,2588,917,0,0,0,0,0.00,0.00,0.00,-0.01,0.03,1.03,0.55,2.20,1.16,0.07,0.11,-0.42,39.33,0.76,1.40
204,2137,101127,2588,902,0,0,0,0,0.00,0.00,0.00,-0.01,0.02,1.04,0.40,2.20,1.08,0.06,0.11,-0.43,38.65,0.48,1.37
205,2137,101128,2586,892,0,0,0,0,0.00,0.00,0.00,-0.03,0.02,1.04,0.64,2.26,1.02,0.06,0.11,-0.43,37.65,1.63,1.38
206,2138,101130,2583,897,0,0,0,0,0.00,0.00,0.00,-0.01,0.02,1.04,0.74,2.31,1.10,0.07,0.11,-0.42,38.92,0.50,1.35
207,2138,101130,2584,920,0,0,0,0,0.00,0.00,0.00,-0.01,0.03,1.03,0.51,2.26,0.94,0.07,0.12,-0.43,38.12,0.60,1.51
208,2140,101129,2586,923,0,0,0,0,0.00,0.00,0.00,-0.01,0.03,1.04,0.58,2.23,0.91,0.07,0.11,-0.42,40.79,0.54,1.55
209,2139,101129,2584,916,0,0,0,0,0.00,0.00,0.00,-0.01,0.02,1.03,0.54,2.09,1.29,0.06,0.11,-0.42,37.67,0.72,1.37
210,2141,101129,2583,906,0,0,0,0,0.00,0.00,0.00,-0.01,0.03,1.04,0.58,2.10,1.19,0.06,0.11,-0.42,35.60,0.82,1.49
211,2141,101130,2583,922,0,0,0,0,0.00,0.00,0.00,-0.02,0.03,1.05,0.64,2.27,0.88,0.06,0.11,-0.42,36.39,0.85,1.57
212,2142,101133,2583,939,0,0,0,0,0.00,0.00,0.00,-0.01,0.04,1.02,0.60,2.24,1.23,0.06,0.12,-0.42,36.58,0.61,2.12
213,2142,101131,2583,936,0,0,0,0,0.00,0.00,0.00,-0.01,0.02,1.03,0.27,2.13,1.00,0.06,0.12,-0.43,36.84,0.80,1.32
214,2144,101132,2583,935,0,0,0,0,0.00,0.00,0.00,-0.01,0.04,1.04,0.69,2.18,1.24,0.07,0.11,-0.42,39.50,0.60,1.99
215,2143,101129,2583,946,0,0,0,0,0.00,0.00,0.00,-0.01,0.03,1.03,0.50,2.24,1.22,0.07,0.12,-0.42,38.53,0.65,1.78
216,2145,101129,2584,953,0,0,0,0,0.00,0.00,0.00,-0.01,0.03,1.04,0.54,2.14,1.14,0.07,0.11,-0.42,38.39,0.58,1.38
217,2145,101131,2584,953,0,0,0,0,0.00,0.00,0.00,-0.01,0.03,1.04,0.57,2.18,1.15,0.07,0.12,-0.43,39.76,0.68,1.41
218,2147,101132,2584,929,0,0,0,0,0.00,0.00,0.00,-0.02,0.06,0.99,0.82,2.33,0.96,0.07,0.12,-0.42,39.43,0.91,3.39
219,2147,101130,2583,913,0,0,0,0,0.00,0.00,0.00,-0.01,0.02,1.04,0.44,2.21,1.20,0.07,0.12,-0.42,37.63,0.61,1.30
220,2148,101128,2581,904,0,0,0,0,0.00,0.00,0.00,-0.01,0.03,1.03,0.41,2.42,1.26,0.06,0.11,-0.42,36.45,0.79,1.49
221,2148,101131,2581,904,0,0,0,0,0.00,0.00,0.00,-0.02,0.03,1.03,0.51,2.36,1.11,0.06,0.11,-0.43,37.31,0.87,1.44
222,2149,101127,2580,895,0,0,0,0,0.00,0.00,0.00,-0.01,0.02,1.03,0.66,2.21,1.08,0.06,0.12,-0.42,36.62,0.72,1.33
223,2149,101131,2579,895,0,0,0,0,0.00,0.00,0.00,-0.01,0.03,1.03,0.37,2.26,1.14,0.06,0.11,-0.42,37.57,0.81,1.49
224,2150,101130,2579,901,0,0,0,0,0.00,0.00,0.00,-0.01,0.03,1.04,0.41,2.24,0.85,0.06,0.12,-0.43,37.25,0.67,1.45
225,2150,101131,2579,910,0,0,0,0,0.00,0.00,0.00,-0.01,0.02,1.04,0.43,2.12,0.98,0.07,0.11,-0.42,38.81,0.61,1.36
226,2151,101127,2580,925,0,0,0,0,0.00,0.00,0.00,-0.02,0.03,1.03,0.57,2.29,0.99,0.06,0.11,-0.42,38.53,0.84,1.60
227,2151,101129,2581,950,0,0,0,0,0.00,0.00,0.00,-0.02,0.02,1.04,0.31,2.12,1.11,0.06,0.12,-0.42,36.89,1.02,1.36
228,2152,101130,2581,957,0,0,0,0,0.00,0.00,0.00,-0.01,0.02,1.03,0.70,2.29,1.09,0.06,0.11,-0.43,37.37,0.79,1.31
229,2152,101130,2583,965,0,0,0,0,0.00,0.00,0.00,-0.01,0.02,1.03,0.42,2.37,1.20,0.07,0.12,-0.43,37.25,0.72,1.34
230,2153,101130,2583,962,0,0,0,0,0.00,0.00,0.00,-0.02,0.03,1.03,0.46,2.14,1.03,0.06,0.11,-0.43,37.84,0.84,1.41
231,2153,101130,2584,946,0,0,0,0,0.00,0.00,0.00,-0.01,0.03,1.03,0.51,2.31,0.97,0.06,0.12,-0.43,36.41,0.63,1.41
232,2154,101129,2583,938,0,0,0,0,0.00,0.00,0.00,-0.01,0.03,1.04,0.52,2.22,1.10,0.07,0.11,-0.43,40.02,0.66,1.52
233,2154,101128,2581,930,0,0,0,0,0.00,0.00,0.00,-0.01,0.03,1.04,0.56,2.15,1.01,0.07,0.11,-0.43,40.02,0.80,1.42
234,2155,101131,2583,947,0,0,0,0,0.00,0.00,0.00,-0.01,0.03,1.03,0.43,2.27,1.07,0.06,0.11,-0.42,37.22,0.50,1.57
235,2154,101132,2583,936,0,0,0,0,0.00,0.00,0.00,-0.01,0.03,1.02,0.56,2.23,0.90,0.06,0.12,-0.42,35.87,0.41,1.74
236,2156,101131,2581,929,0,0,0,0,0.00,0.00,0.00,-0.01,0.02,1.04,0.46,2.21,1.07,0.06,0.12,-0.43,36.58,0.80,1.37
237,2156,101133,2583,926,0,0,0,0,0.00,0.00,0.00,-0.01,0.02,1.04,0.31,2.22,0.97,0.06,0.12,-0.43,34.38,0.62,1.34
238,2157,101131,2583,923,0,0,0,0,0.00,0.00,0.00,-0.02,0.03,1.03,0.64,2.20,1.01,0.06,0.12,-0.42,35.01,0.87,1.44
239,2157,101127,2583,916,0,0,0,0,0.00,0.00,0.00,-0.01,0.03,1.03,0.62,2.27,1.31,0.06,0.11,-0.42,35.23,0.75,1.41
240,2157,101128,2583,920,0,0,0,0,0.00,0.00,0.00,-0.01,0.01,1.05,0.41,2.34,1.12,0.07,0.11,-0.42,39.88,0.44,0.56
241,2157,101126,2583,944,0,0,0,0,0.00,0.00,0.00,-0.01,0.03,1.04,0.64,2.05,1.27,0.06,0.11,-0.42,39.06,0.44,1.44
242,2159,101128,2583,952,0,0,0,0,0.00,0.00,0.00,-0.01,0.02,1.03,0.50,2.18,0.99,0.06,0.11,-0.42,38.27,0.67,1.37
243,2158,101128,2583,959,0,0,0,0,0.00,0.00,0.00,-0.01,0.03,1.03,0.57,2.30,1.25,0.07,0.11,-0.43,39.51,0.62,1.47
244,2159,101130,2584,960,0,0,0,0,0.00,0.00,0.00,-0.01,0.02,1.04,0.49,2.09,1.17,0.06,0.12,-0.43,37.25,0.75,1.35
245,2159,101129,2584,962,0,0,0,0,0.00,0.00,0.00,-0.01,0.03,1.03,0.61,2.21,1.05,0.06,0.12,-0.43,36.88,0.62,1.49
246,2160,101129,2586,962,0,0,0,0,0.00,0.00,0.00,-0.01,0.03,1.03,0.46,2.07,1.23,0.07,0.12,-0.43,40.12,0.66,1.51
247,2160,101128,2587,962,0,0,0,0,0.00,0.00,0.00,-0.01,0.03,1.03,0.49,2.33,1.16,0.06,0.12,-0.42,36.74,0.64,1.40
248,2161,101130,2586,950,0,0,0,0,0.00,0.00,0.00,-0.01,0.03,1.04,0.62,2.33,1.17,0.07,0.12,-0.43,37.97,0.67,1.49
249,2161,101130,2586,920,0,0,0,0,0.00,0.00,0.00,-0.01,0.03,1.03,0.40,2.44,1.16,0.06,0.12,-0.43,37.28,0.71,1.50
250,2162,101133,2583,911,0,0,0,0,0.00,0.00,0.00,-0.01,0.02,1.03,0.50,2.27,1.19,0.06,0.12,-0.42,34.52,0.66,1.31
251,2162,101131,2583,916,0,0,0,0,0.00,0.00,0.00,-0.01,0.03,1.04,0.41,2.14,1.23,0.06,0.12,-0.43,34.66,0.63,1.47
252,2163,101132,2581,916,0,0,0,0,0.00,0.00,0.00,-0.01,0.02,1.03,0.71,2.42,1.05,0.06,0.12,-0.42,36.71,0.79,1.34
253,2163,101132,2583,930,0,0,0,0,0.00,0.00,0.00,-0.01,0.03,1.03,0.70,2.30,1.14,0.07,0.12,-0.43,38.76,0.66,1.48
254,2164,101130,2583,933,0,0,0,0,0.00,0.00,0.00,-0.01,0.03,1.03,0.55,2.19,1.12,0.06,0.12,-0.42,36.32,0.61,1.55
255,2164,101128,2583,916,0,0,0,0,0.00,0.00,0.00,-0.02,0.02,1.03,0.49,2.26,1.13,0.06,0.12,-0.43,34.57,0.93,1.36
256,2165,101129,2581,906,0,0,0,0,0.00,0.00,0.00,-0.02,0.03,1.03,0.50,2.03,1.07,0.07,0.12,-0.41,39.13,0.87,1.62
257,2165,101130,2580,902,0,0,0,0,0.00,0.00,0.00,-0.01,0.03,1.03,0.60,2.22,1.26,0.06,0.12,-0.43,36.61,0.60,1.47
258,2166,101130,2580,919,0,0,0,0,0.00,0.00,0.00,-0.00,0.05,1.00,0.31,2.35,1.04,0.07,0.12,-0.42,36.81,0.21,2.63
259,2166,101131,2580,946,0,0,0,0,0.00,0.00,0.00,-0.01,0.04,1.01,0.48,2.23,1.20,0.06,0.12,-0.42,37.28,0.63,2.29
260,2168,101130,2580,959,0,0,0,0,0.00,0.00,0.00,-0.02,0.02,1.04,0.64,2.03,0.96,0.06,0.12,-0.42,36.59,0.86,1.22
261,2167,101134,2581,975,0,0,0,0,0.00,0.00,0.00,-0.01,0.02,1.04,0.61,2.14,1.23,0.06,0.11,-0.42,37.63,0.82,1.28
262,2168,101132,2581,982,0,0,0,0,0.00,0.00,0.00,-0.01,0.03,1.03,0.42,2.18,0.89,0.06,0.12,-0.43,35.74,0.60,1.40
263,2169,101130,2583,950,0,0,0,0,0.00,0.00,0.00,-0.01,0.03,1.01,0.19,2.34,1.17,0.06,0.12,-0.43,36.84,0.51,1.71
264,2170,101132,2583,938,0,0,0,0,0.00,0.00,0.00,-0.02,0.03,1.06,0.40,2.04,1.29,0.06,0.12,-0.43,36.23,0.87,1.57
265,2169,101131,2583,950,0,0,0,0,0.00,0.00,0.00,-0.01,0.02,1.03,0.13,2.31,1.20,0.06,0.11,-0.42,37.87,0.50,1.30
266,2171,101127,2583,962,0,0,0,0,0.00,0.00,0.00,-0.01,0.02,1.02,0.44,2.13,0.93,0.07,0.12,-0.42,37.74,0.71,1.36
267,2170,101129,2583,957,0,0,0,0,0.00,0.00,0.00,-0.01,0.03,1.05,0.67,2.31,0.96,0.06,0.12,-0.42,37.15,0.57,1.41
268,2171,101123,2583,965,0,0,0,0,0.00,0.00,0.00,-0.01,0.03,1.03,0.48,2.24,1.18,0.06,0.12,-0.43,35.28,0.58,1.44
269,2171,101128,2584,965,0,0,0,0,0.00,0.00,0.00,-0.01,0.03,1.04,0.55,1.90,1.15,0.06,0.12,-0.42,36.20,0.73,1.43
270,2172,101130,2586,960,0,0,0,0,0.00,0.00,0.00,-0.01,0.02,1.04,0.42,2.25,1.08,0.06,0.12,-0.43,35.09,0.70,1.01
271,2172,101131,2586,955,0,0,0,0,0.00,0.00,0.00,-0.01,0.03,1.02,0.52,2.12,1.19,0.06,0.12,-0.42,37.20,0.62,1.54
272,2173,101134,2586,955,0,0,0,0,0.00,0.00,0.00,-0.01,0.03,1.04,0.45,2.17,1.09,0.06,0.12,-0.42,37.20,0.72,1.41
273,2172,101130,2587,969,0,0,0,0,0.00,0.00,0.00,-0.01,0.03,1.03,0.46,2.33,1.11,0.07,0.12,-0.42,38.12,0.78,1.43
274,2173,101131,2587,957,0,0,0,0,0.00,0.00,0.00,-0.02,0.03,1.03,0.19,2.06,0.90,0.07,0.11,-0.42,39.30,0.84,1.44
275,2173,101132,2586,922,0,0,0,0,0.00,0.00,0.00,-0.02,0.03,1.04,0.70,2.23,0.97,0.06,0.12,-0.42,37.74,0.93,1.65
276,2175,101132,2586,919,0,0,0,0,0.00,0.00,0.00,-0.01,0.03,1.03,0.39,2.32,1.04,0.07,0.12,-0.42,38.68,0.70,1.50
277,2174,101132,2586,929,0,0,0,0,0.00,0.00,0.00,-0.01,0.02,1.03,0.46,2.08,1.06,0.06,0.11,-0.43,37.65,0.51,1.39
278,2175,101129,2586,928,0,0,0,0,0.00,0.00,0.00,-0.01,0.03,1.03,0.43,2.38,1.34,0.07,0.12,-0.43,38.29,0.68,1.45
279,2175,101133,2586,929,0,0,0,0,0.00,0.00,0.00,-0.01,0.03,1.03,0.61,2.28,1.10,0.06,0.12,-0.42,37.34,0.58,1.42
280,2176,101126,2586,928,0,0,0,0,0.00,0.00,0.00,-0.01,0.03,1.04,0.71,2.27,0.98,0.07,0.12,-0.42,37.89,0.65,1.60
281,2176,101132,2586,922,0,0,0,0,0.00,0.00,0.00,-0.01,0.02,1.03,0.47,2.20,1.02,0.06,0.12,-0.43,35.64,0.65,1.33
282,2178,101130,2586,930,0,0,0,0,0.00,0.00,0.00,-0.01,0.03,1.03,0.49,2.38,1.07,0.07,0.12,-0.42,37.72,0.74,1.55
283,2177,101131,2587,953,0,0,0,0,0.00,0.00,0.00,-0.02,0.03,1.03,0.67,2.21,1.17,0.06,0.12,-0.42,36.44,0.92,1.51
284,2178,101126,2586,966,0,0,0,0,0.00,0.00,0.00,-0.01,0.02,1.03,0.28,1.97,1.09,0.07,0.12,-0.43,38.75,0.73,1.35
285,2178,101130,2587,962,0,0,0,0,0.00,0.00,0.00,-0.01,0.02,1.03,0.61,2.33,1.11,0.07,0.12,-0.42,37.62,0.55,1.38
286,2179,101128,2587,946,0,0,0,0,0.00,0.00,0.00,-0.01,0.02,1.03,0.61,2.14,1.39,0.06,0.12,-0.43,35.01,0.77,1.30
287,2179,101132,2587,929,0,0,0,0,0.00,0.00,0.00,-0.02,0.03,1.03,0.73,2.27,1.20,0.06,0.11,-0.43,35.54,1.02,1.58
288,2180,101133,2587,935,0,0,0,0,0.00,0.00,0.00,-0.01,0.02,1.03,0.61,2.21,1.30,0.06,0.12,-0.42,35.57,0.54,1.38
289,2180,101127,2587,965,0,0,0,0,0.00,0.00,0.00,-0.01,0.03,1.03,0.37,2.16,1.33,0.07,0.12,-0.43,37.09,0.72,1.47
290,2180,101128,2588,966,0,0,0,0,0.00,0.00,0.00,-0.01,0.03,1.03,0.44,2.30,0.93,0.06,0.12,-0.42,36.09,0.82,1.70
291,2180,101131,2588,969,0,0,0,0,0.00,0.00,0.00,-0.01,0.03,1.04,0.33,2.15,0.92,0.07,0.12,-0.43,38.18,0.61,1.73
292,2181,101129,2590,965,0,0,0,0,0.00,0.00,0.00,-0.01,0.02,1.03,0.76,2.09,1.14,0.06,0.12,-0.43,34.77,0.69,1.34
293,2181,101129,2590,955,0,0,0,0,0.00,0.00,0.00,-0.02,0.02,1.04,0.70,2.00,1.04,0.07,0.11,-0.42,40.44,0.83,1.35
294,2182,101133,2590,939,0,0,0,0,0.00,0.00,0.00,-0.01,0.03,1.03,0.54,2.42,1.05,0.07,0.12,-0.42,38.00,0.55,1.63
295,2181,101128,2590,935,0,0,0,0,0.00,0.00,0.00,-0.02,0.03,1.03,0.46,2.19,1.21,0.07,0.12,-0.43,38.22,0.87,1.44
296,2182,101125,2590,941,0,0,0,0,0.00,0.00,0.00,-0.01,0.02,1.04,0.58,2.17,1.09,0.06,0.12,-0.42,33.90,0.56,1.28
297,2182,101130,2590,939,0,0,0,0,0.00,0.00,0.00,-0.01,0.03,1.04,0.46,2.15,0.99,0.06,0.12,-0.43,35.38,0.67,1.66
298,2183,101129,2590,933,0,0,0,0,0.00,0.00,0.00,-0.02,0.02,1.03,0.64,2.24,0.80,0.06,0.12,-0.42,37.03,0.98,0.98
299,2183,101129,2591,947,0,0,0,0,0.00,0.00,0.00,-0.01,0.02,1.03,0.62,2.22,0.99,0.06,0.11,-0.42,37.64,0.58,1.38
300,2184,101134,2591,955,0,0,0,0,0.00,0.00,0.00,-0.01,0.02,1.05,0.44,2.24,1.01,0.07,0.12,-0.42,39.48,0.78,0.93
301,2184,101130,2592,959,0,0,0,0,0.00,0.00,0.00,-0.02,0.02,1.04,0.42,2.07,1.21,0.06,0.11,-0.42,38.58,0.92,1.02
302,2185,101133,2591,957,0,0,0,0,0.00,0.00,0.00,-0.01,0.03,1.04,0.59,2.18,0.96,0.06,0.12,-0.42,35.31,0.72,1.66
303,2184,101132,2592,950,0,0,0,0,0.00,0.00,0.00,-0.01,0.03,1.03,0.46,2.26,1.23,0.06,0.12,-0.42,35.88,0.54,1.73
304,2186,101129,2592,949,0,0,0,0,0.00,0.00,0.00,-0.02,0.02,1.02,0.65,2.18,0.85,0.06,0.12,-0.43,36.26,1.03,1.28
305,2185,101128,2594,957,0,0,0,0,0.00,0.00,0.00,-0.01,0.03,1.03,0.48,2.17,1.13,0.06,0.12,-0.42,36.34,0.79,1.42
306,2186,101130,2594,947,0,0,0,0,0.00,0.00,0.00,-0.01,0.03,1.03,0.49,1.82,0.87,0.07,0.11,-0.42,39.23,0.79,1.43
307,2186,101132,2592,928,0,0,0,0,0.00,0.00,0.00,-0.01,0.02,1.03,0.58,2.18,0.79,0.07,0.12,-0.42,37.52,0.63,1.33
308,2187,101131,2592,930,0,0,0,0,0.00,0.00,0.00,-0.01,0.03,1.03,0.44,2.19,1.00,0.06,0.12,-0.43,36.37,0.73,1.42
309,2186,101128,2594,946,0,0,0,0,0.00,0.00,0.00,-0.02,0.02,1.04,0.50,2.32,1.06,0.07,0.12,-0.42,37.72,0.86,1.18
310,2187,101130,2592,949,0,0,0,0,0.00,0.00,0.00,-0.01,0.02,1.02,0.22,2.09,0.99,0.07,0.12,-0.42,38.11,0.53,1.11
311,2186,101125,2594,956,0,0,0,0,0.00,0.00,0.00,-0.01,0.02,1.05,0.64,2.16,1.24,0.06,0.12,-0.43,35.69,0.60,1.24
312,2187,101132,2594,949,0,0,0,0,0.00,0.00,0.00,-0.01,0.03,1.04,0.55,2.14,1.21,0.07,0.12,-0.42,37.31,0.70,1.59
313,2187,101128,2594,928,0,0,0,0,0.00,0.00,0.00,-0.01,0.04,1.00,0.79,2.21,1.23,0.07,0.12,-0.43,37.65,0.50,2.17
314,2188,101132,2594,911,0,0,0,0,0.00,0.00,0.00,-0.01,0.02,1.03,0.46,2.20,1.10,0.07,0.11,-0.42,39.47,0.81,1.38
315,2188,101135,2592,894,0,0,0,0,0.00,0.00,0.00,-0.01,0.03,1.03,0.55,2.23,1.13,0.07,0.12,-0.43,37.26,0.68,1.42
316,2189,101130,2591,889,0,0,0,0,0.00,0.00,0.00,-0.01,0.03,1.03,0.37,2.21,1.08,0.06,0.12,-0.42,37.13,0.83,1.49
317,2189,101127,2591,889,0,0,0,0,0.00,0.00,0.00,-0.01,0.02,1.04,0.32,2.33,1.22,0.07,0.11,-0.42,39.01,0.82,1.15
318,2190,101132,2590,889,0,0,0,0,0.00,0.00,0.00,-0.01,0.02,1.02,0.48,2.12,1.08,0.07,0.11,-0.42,38.36,0.75,0.92
319,2190,101131,2588,889,0,0,0,0,0.00,0.00,0.00,-0.01,0.02,1.03,0.53,2.10,1.02,0.07,0.12,-0.41,38.63,0.74,1.26
320,2190,101130,2588,904,0,0,0,0,0.00,0.00,0.00,-0.02,0.02,1.04,0.40,2.05,1.14,0.06,0.12,-0.42,36.86,0.97,1.33
321,2190,101132,2588,906,0,0,0,0,0.00,0.00,0.00,-0.01,0.02,1.04,0.53,2.05,1.06,0.06,0.12,-0.43,37.44,0.80,1.28
322,2191,101132,2587,901,0,0,0,0,0.00,0.00,0.00,-0.02,0.02,1.03,0.68,2.27,1.05,0.06,0.12,-0.42,34.59,0.88,1.31
323,2192,101130,2587,897,0,0,0,0,0.00,0.00,0.00,-0.03,0.02,1.04,0.52,2.18,1.17,0.07,0.12,-0.42,37.28,1.57,1.04
324,2192,101130,2586,889,0,0,0,0,0.00,0.00,0.00,-0.01,0.03,1.03,0.36,2.16,1.03,0.06,0.12,-0.42,37.57,0.55,1.51
325,2192,101131,2583,889,0,0,0,0,0.00,0.00,0.00,-0.01,0.03,1.03,0.67,2.36,1.17,0.06,0.12,-0.42,36.91,0.80,1.45
326,2193,101127,2584,906,0,0,0,0,0.00,0.00,0.00,-0.01,0.03,1.04,0.67,2.21,0.82,0.06,0.12,-0.42,37.10,0.66,1.51
327,2193,101129,2584,946,0,0,0,0,0.00,0.00,0.00,-0.01,0.03,1.03,0.43,2.24,1.06,0.06,0.12,-0.42,36.99,0.54,1.68
328,2194,101131,2584,955,0,0,0,0,0.00,0.00,0.00,-0.02,0.02,1.04,0.52,2.16,1.29,0.06,0.11,-0.42,38.07,0.89,1.06
329,2194,101131,2586,947,0,0,0,0,0.00,0.00,0.00,-0.01,0.03,1.03,0.64,2.19,0.95,0.07,0.12,-0.42,38.04,0.63,1.48
330,2195,101131,2586,946,0,0,0,0,0.00,0.00,0.00,-0.03,0.02,1.04,0.60,2.38,0.85,0.06,0.12,-0.42,35.17,1.70,1.20
331,2195,101128,2587,962,0,0,0,0,0.00,0.00,0.00,-0.02,0.01,1.06,0.34,2.44,1.01,0.06,0.12,-0.42,36.86,1.07,0.53
332,2195,101130,2587,959,0,0,0,0,0.00,0.00,0.00,-0.02,0.02,1.03,0.52,2.29,0.97,0.06,0.12,-0.42,35.46,1.01,0.85
333,2196,101127,2587,953,0,0,0,0,0.00,0.00,0.00,-0.01,0.02,1.03,0.62,2.15,1.10,0.06,0.12,-0.42,36.14,0.71,1.26
334,2196,101130,2588,955,0,0,0,0,0.00,0.00,0.00,-0.01,0.03,1.04,0.52,2.44,1.34,0.06,0.12,-0.43,36.12,0.48,1.53
335,2196,101131,2588,957,0,0,0,0,0.00,0.00,0.00,-0.02,0.03,1.03,0.52,2.15,0.96,0.07,0.12,-0.42,37.74,0.89,1.46
336,2197,101129,2588,941,0,0,0,0,0.00,0.00,0.00,-0.01,0.03,1.04,0.38,2.19,1.17,0.06,0.12,-0.43,37.17,0.55,1.46
337,2197,101129,2587,916,0,0,0,0,0.00,0.00,0.00,-0.01,0.03,1.03,0.57,2.10,1.08,0.06,0.12,-0.42,37.24,0.57,1.54
338,2198,101132,2586,914,0,0,0,0,0.00,0.00,0.00,-0.02,0.02,1.04,0.56,2.24,1.05,0.06,0.12,-0.42,34.15,0.86,1.31
339,2198,101132,2587,906,0,0,0,0,0.00,0.00,0.00,-0.01,0.02,1.05,0.69,2.24,1.11,0.06,0.13,-0.42,34.97,0.64,1.29
340,2198,101129,2586,905,0,0,0,0,0.00,0.00,0.00,-0.01,0.03,1.03,0.53,2.17,1.16,0.07,0.12,-0.42,38.00,0.70,1.42
341,2199,101130,2586,899,0,0,0,0,0.00,0.00,0.00,-0.01,0.02,1.04,0.44,2.14,1.04,0.07,0.12,-0.43,36.50,0.82,1.03
342,2200,101131,2584,898,0,0,0,0,0.00,0.00,0.00,-0.01,0.03,1.03,0.52,2.00,1.11,0.06,0.12,-0.42,36.45,0.39,1.64
343,2199,101127,2584,897,0,0,0,0,0.00,0.00,0.00,-0.01,0.03,1.03,0.52,2.37,0.97,0.07,0.12,-0.42,39.50,0.80,1.59
344,2201,101131,2583,899,0,0,0,0,0.00,0.00,0.00,-0.01,0.03,1.03,0.49,2.27,1.02,0.06,0.12,-0.43,35.61,0.53,1.48
345,2200,101129,2583,916,0,0,0,0,0.00,0.00,0.00,-0.01,0.03,1.03,0.43,2.06,1.06,0.06,0.12,-0.43,36.46,0.67,1.51
346,2201,101131,2583,923,0,0,0,0,0.00,0.00,0.00,-0.01,0.03,1.03,0.45,2.24,1.22,0.07,0.12,-0.42,36.80,0.43,1.41
347,2201,101130,2583,914,0,0,0,0,0.00,0.00,0.00,-0.01,0.03,1.04,0.70,2.17,1.31,0.07,0.12,-0.43,37.06,0.55,1.39
348,2202,101130,2581,905,0,0,0,0,0.00,0.00,0.00,-0.01,0.02,1.03,0.34,2.28,1.29,0.06,0.12,-0.43,35.57,0.53,1.38
349,2202,101130,2581,914,0,0,0,0,0.00,0.00,0.00,-0.01,0.03,1.03,0.46,2.18,1.29,0.06,0.13,-0.43,34.50,0.66,1.53
350,2203,101130,2581,942,0,0,0,0,0.00,0.00,0.00,-0.01,0.02,1.04,0.73,2.24,0.84,0.06,0.12,-0.42,35.59,0.61,1.05
351,2202,101131,2583,959,0,0,0,0,0.00,0.00,0.00,-0.01,0.02,1.04,0.46,2.22,1.09,0.06,0.12,-0.42,36.66,0.69,1.33
352,2203,101135,2583,966,0,0,0,0,0.00,0.00,0.00,-0.01,0.03,1.04,0.73,2.39,0.94,0.06,0.12,-0.42,36.44,0.59,1.40
353,2203,101136,2584,950,0,0,0,0,0.00,0.00,0.00,-0.01,0.02,1.03,0.53,1.90,1.19,0.06,0.12,-0.43,37.07,0.70,1.24
354,2204,101125,2584,928,0,0,0,0,0.00,0.00,0.00,-0.01,0.02,1.04,0.47,2.15,1.19,0.06,0.12,-0.43,35.87,0.80,1.35
355,2204,101131,2584,935,0,0,0,0,0.00,0.00,0.00,-0.01,0.02,1.04,0.41,2.12,0.93,0.06,0.12,-0.42,36.53,0.68,1.20
356,2205,101129,2583,946,0,0,0,0,0.00,0.00,0.00,-0.01,0.02,1.04,0.61,2.15,1.15,0.07,0.12,-0.43,37.18,0.76,1.31
357,2205,101134,2584,955,0,0,0,0,0.00,0.00,0.00,-0.01,0.03,1.04,0.58,2.28,1.09,0.06,0.11,-0.42,36.94,0.77,1.45
358,2206,101133,2586,942,0,0,0,0,0.00,0.00,0.00,-0.01,0.03,1.03,0.49,2.37,1.17,0.07,0.12,-0.43,37.33,0.53,1.59
359,2205,101129,2584,919,0,0,0,0,0.00,0.00,0.00,-0.01,0.02,1.04,0.58,2.21,1.05,0.06,0.12,-0.42,35.74,0.77,1.37
360,2206,101130,2584,913,0,0,0,0,0.00,0.00,0.00,-0.01,0.03,1.04,0.57,2.12,1.20,0.07,0.12,-0.42,36.55,0.79,1.42
361,2206,101134,2584,905,0,0,0,0,0.00,0.00,0.00,-0.01,0.03,1.03,0.56,2.21,1.11,0.07,0.12,-0.42,36.37,0.77,1.40
362,2207,101133,2583,901,0,0,0,0,0.00,0.00,0.00,-0.01,0.02,1.03,0.57,2.18,0.98,0.07,0.12,-0.42,38.01,0.67,1.27
363,2206,101131,2581,906,0,0,0,0,0.00,0.00,0.00,-0.01,0.02,1.03,0.59,2.17,1.26,0.07,0.13,-0.43,36.61,0.66,1.12
364,2207,101130,2581,901,0,0,0,0,0.00,0.00,0.00,-0.01,0.02,1.03,0.57,2.09,1.11,0.06,0.12,-0.42,37.44,0.49,1.27
365,2207,101129,2581,911,0,0,0,0,0.00,0.00,0.00,-0.02,0.03,1.03,0.57,2.20,1.31,0.07,0.12,-0.42,38.20,0.87,1.46
366,2207,101130,2581,930,0,0,0,0,0.00,0.00,0.00,-0.01,0.03,1.03,0.66,2.14,1.02,0.06,0.12,-0.42,36.44,0.76,1.54
367,2207,101128,2583,939,0,0,0,0,0.00,0.00,0.00,-0.01,0.02,1.04,0.55,2.31,1.36,0.06,0.12,-0.43,36.14,0.82,1.36
368,2208,101130,2581,952,0,0,0,0,0.00,0.00,0.00,-0.01,0.02,1.03,0.68,2.35,0.86,0.06,0.12,-0.42,36.30,0.70,1.21
369,2208,101130,2584,959,0,0,0,0,0.00,0.00,0.00,-0.01,0.02,1.03,0.52,2.02,1.05,0.06,0.12,-0.42,35.93,0.69,1.34
370,2208,101129,2584,959,0,0,0,0,0.00,0.00,0.00,-0.01,0.02,1.04,0.62,2.02,1.11,0.06,0.12,-0.43,35.79,0.82,1.34
371,2208,101130,2586,974,0,0,0,0,0.00,0.00,0.00,-0.01,0.03,1.04,0.59,2.21,1.32,0.06,0.12,-0.42,35.67,0.57,1.68
372,2208,101131,2586,972,0,0,0,0,0.00,0.00,0.00,-0.01,0.02,1.03,0.73,2.12,0.95,0.06,0.12,-0.43,36.99,0.71,1.19
373,2208,101129,2587,968,0,0,0,0,0.00,0.00,0.00,-0.01,0.03,1.03,0.68,2.46,1.08,0.06,0.12,-0.43,36.38,0.65,1.75
374,2209,101131,2587,969,0,0,0,0,0.00,0.00,0.00,-0.02,0.03,1.04,0.49,2.25,0.98,0.06,0.11,-0.42,37.69,0.86,1.49
375,2208,101126,2587,977,0,0,0,0,0.00,0.00,0.00,-0.01,0.03,1.04,0.67,2.01,1.08,0.06,0.12,-0.43,37.34,0.48,1.49
376,2209,101128,2587,977,0,0,0,0,0.00,0.00,0.00,-0.02,0.02,1.03,0.49,2.30,1.05,0.07,0.12,-0.42,38.04,0.90,1.27
377,2209,101132,2588,971,0,0,0,0,0.00,0.00,0.00,-0.01,0.02,1.04,0.50,2.30,1.06,0.06,0.11,-0.42,38.29,0.81,1.26
378,2210,101133,2588,959,0,0,0,0,0.00,0.00,0.00,-0.01,0.03,1.03,0.60,2.11,1.16,0.06,0.12,-0.42,36.36,0.55,1.53
379,2209,101128,2590,959,0,0,0,0,0.00,0.00,0.00,-0.01,0.02,1.03,0.46,2.19,1.26,0.06,0.11,-0.43,38.50,0.62,1.26
380,2210,101132,2591,959,0,0,0,0,0.00,0.00,0.00,-0.01,0.03,1.03,0.34,2.18,1.06,0.06,0.12,-0.43,36.86,0.70,1.65
381,2210,101126,2591,947,0,0,0,0,0.00,0.00,0.00,-0.02,0.02,1.04,0.51,2.06,1.04,0.06,0.12,-0.42,36.19,0.87,1.14
382,2211,101131,2591,956,0,0,0,0,0.00,0.00,0.00,-0.01,0.02,1.04,0.35,2.09,1.17,0.07,0.11,-0.43,40.45,0.74,1.37
383,2211,101130,2591,953,0,0,0,0,0.00,0.00,0.00,-0.01,0.03,1.03,0.52,2.34,1.13,0.06,0.12,-0.43,35.77,0.76,1.52
384,2212,101131,2591,956,0,0,0,0,0.00,0.00,0.00,-0.01,0.03,1.03,0.53,2.39,1.08,0.06,0.12,-0.43,36.98,0.57,1.39
385,2211,101127,2592,950,0,0,0,0,0.00,0.00,0.00,-0.01,0.02,1.03,0.69,2.21,1.08,0.06,0.12,-0.42,36.21,0.76,1.33
386,2212,101131,2592,947,0,0,0,0,0.00,0.00,0.00,-0.01,0.02,1.03,0.44,2.30,1.21,0.06,0.12,-0.43,36.30,0.78,1.38
387,2212,101133,2594,949,0,0,0,0,0.00,0.00,0.00,-0.01,0.02,1.04,0.58,2.21,0.97,0.07,0.11,-0.42,40.40,0.79,1.29
388,2212,101134,2592,955,0,0,0,0,0.00,0.00,0.00,-0.02,0.03,1.03,0.57,2.23,1.18,0.06,0.12,-0.42,35.72,0.85,1.40
389,2212,101127,2594,953,0,0,0,0,0.00,0.00,0.00,-0.02,0.03,1.03,0.55,2.20,1.09,0.06,0.11,-0.42,36.40,0.84,1.67
390,2213,101132,2594,955,0,0,0,0,0.00,0.00,0.00,-0.01,0.03,1.03,0.63,2.26,0.96,0.07,0.12,-0.42,36.96,0.57,1.55
391,2212,101128,2595,953,0,0,0,0,0.00,0.00,0.00,-0.01,0.03,1.04,0.32,2.19,1.09,0.06,0.11,-0.42,35.40,0.76,1.40
392,2213,101132,2595,952,0,0,0,0,0.00,0.00,0.00,-0.01,0.02,1.03,0.49,2.20,1.07,0.06,0.11,-0.43,36.39,0.81,1.23
393,2213,101130,2595,955,0,0,0,0,0.00,0.00,0.00,-0.01,0.03,1.03,0.42,2.20,1.05,0.06,0.12,-0.43,35.17,0.80,1.44
394,2213,101129,2595,955,0,0,0,0,0.00,0.00,0.00,-0.01,0.03,1.03,0.51,2.26,1.44,0.06,0.11,-0.42,36.75,0.77,1.44
395,2213,101129,2595,953,0,0,0,0,0.00,0.00,0.00,-0.02,0.02,1.04,0.55,1.92,1.06,0.07,0.12,-0.42,38.15,0.89,1.23
396,2213,101132,2597,932,0,0,0,0,0.00,0.00,0.00,-0.01,0.03,1.02,0.51,2.27,1.04,0.06,0.11,-0.42,34.27,0.46,1.54
397,2213,101133,2597,906,0,0,0,0,0.00,0.00,0.00,-0.01,0.02,1.04,0.63,2.00,1.02,0.06,0.12,-0.43,36.28,0.77,1.31
398,2213,101128,2595,908,0,0,0,0,0.00,0.00,0.00,-0.01,0.02,1.03,0.31,2.18,1.07,0.06,0.12,-0.43,35.58,0.55,1.30
399,2213,101127,2595,911,0,0,0,0,0.00,0.00,0.00,-0.01,0.03,1.03,0.42,2.33,0.98,0.06,0.12,-0.43,35.40,0.72,1.69
400,2213,101127,2594,902,0,0,0,0,0.00,0.00,0.00,-0.01,0.03,1.04,0.70,2.20,1.14,0.06,0.12,-0.43,34.90,0.82,1.56
401,2213,101133,2595,911,0,0,0,0,0.00,0.00,0.00,-0.02,0.02,1.03,0.44,2.16,1.07,0.06,0.12,-0.42,36.71,1.01,1.02
402,2214,101128,2594,892,0,0,0,0,0.00,0.00,0.00,-0.01,0.02,1.03,0.62,2.06,1.32,0.06,0.12,-0.42,34.83,0.83,1.30
403,2213,101130,2592,897,0,0,0,0,0.00,0.00,0.00,-0.01,0.02,1.04,0.63,2.29,1.03,0.06,0.12,-0.42,36.42,0.71,1.22
404,2214,101126,2591,899,0,0,0,0,0.00,0.00,0.00,-0.01,0.03,1.03,0.35,2.31,0.94,0.06,0.12,-0.43,36.59,0.65,1.48
405,2213,101126,2594,930,0,0,0,0,0.00,0.00,0.00,-0.01,0.03,1.03,0.43,2.09,1.15,0.07,0.13,-0.43,36.39,0.75,1.39
406,2214,101127,2594,919,0,0,0,0,0.00,0.00,0.00,-0.02,0.03,1.03,0.65,2.32,1.25,0.06,0.12,-0.42,34.88,0.84,1.46
407,2214,101132,2591,895,0,0,0,0,0.00,0.00,0.00,-0.01,0.03,1.03,0.52,2.27,1.17,0.06,0.12,-0.43,35.56,0.74,1.46
408,2215,101131,2591,886,0,0,0,0,0.00,0.00,0.00,-0.01,0.03,1.03,0.49,2.24,0.93,0.07,0.12,-0.42,36.97,0.65,1.69
409,2214,101130,2590,892,0,0,0,0,0.00,0.00,0.00,-0.00,0.06,0.97,0.92,1.92,1.02,0.06,0.11,-0.43,37.85,0.18,3.29
410,2215,101131,2588,906,0,0,0,0,0.00,0.00,0.00,-0.01,0.03,1.03,0.71,2.19,1.20,0.06,0.12,-0.42,37.30,0.68,1.41
411,2214,101127,2588,895,0,0,0,0,0.00,0.00,0.00,-0.01,0.03,1.03,0.41,2.13,1.14,0.06,0.12,-0.43,36.92,0.70,1.39
412,2215,101131,2586,888,0,0,0,0,0.00,0.00,0.00,-0.01,0.03,1.05,0.61,2.04,1.29,0.06,0.12,-0.43,35.94,0.73,1.53
413,2215,101128,2584,888,0,0,0,0,0.00,0.00,0.00,-0.03,0.03,1.03,0.76,2.20,1.04,0.06,0.12,-0.42,35.85,1.62,1.82
414,2216,101128,2583,891,0,0,0,0,0.00,0.00,0.00,-0.02,0.02,1.03,0.45,2.15,1.32,0.06,0.13,-0.42,35.65,0.86,1.19
415,2215,101127,2584,916,0,0,0,0,0.00,0.00,0.00,-0.01,0.03,1.02,0.48,2.45,1.23,0.06,0.12,-0.42,37.60,0.57,1.54
416,2216,101129,2584,923,0,0,0,0,0.00,0.00,0.00,-0.01,0.03,1.03,0.40,2.27,1.01,0.07,0.11,-0.43,40.23,0.69,1.44
417,2216,101129,2584,919,0,0,0,0,0.00,0.00,0.00,-0.01,0.02,1.04,0.60,2.30,1.12,0.07,0.12,-0.43,38.24,0.66,1.36
418,2216,101127,2584,916,0,0,0,0,0.00,0.00,0.00,-0.01,0.02,1.03,0.49,2.38,1.14,0.07,0.12,-0.43,39.19,0.60,1.36
419,2216,101131,2584,928,0,0,0,0,0.00,0.00,0.00,-0.01,0.02,1.05,0.79,2.27,1.29,0.06,0.12,-0.42,37.08,0.61,1.11
420,2217,101126,2586,938,0,0,0,0,0.00,0.00,0.00,-0.01,0.02,1.04,0.62,2.33,1.07,0.06,0.12,-0.42,35.25,0.57,1.24
421,2217,101128,2586,950,0,0,0,0,0.00,0.00,0.00,-0.01,0.03,1.04,0.68,2.12,1.17,0.07,0.11,-0.42,40.28,0.82,1.51
422,2218,101129,2587,957,0,0,0,0,0.00,0.00,0.00,-0.00,0.03,1.03,0.72,2.31,1.19,0.06,0.11,-0.41,37.55,0.10,1.44
423,2217,101128,2588,957,0,0,0,0,0.00,0.00,0.00,-0.01,0.03,1.03,0.39,2.28,1.10,0.07,0.12,-0.43,37.61,0.75,1.56
424,2218,101132,2588,947,0,0,0,0,0.00,0.00,0.00,-0.01,0.03,1.06,0.48,2.27,1.20,0.06,0.12,-0.42,35.70,0.68,1.41
425,2218,101126,2588,950,0,0,0,0,0.00,0.00,0.00,-0.01,0.03,1.03,0.44,2.32,1.22,0.06,0.12,-0.43,36.60,0.66,1.84
426,2219,101126,2588,956,0,0,0,0,0.00,0.00,0.00,-0.01,0.02,1.04,0.73,2.23,1.02,0.06,0.12,-0.42,35.81,0.82,1.16
427,2218,101129,2590,957,0,0,0,0,0.00,0.00,0.00,-0.01,0.03,1.04,0.41,2.27,1.14,0.06,0.12,-0.42,35.23,0.70,1.47
428,2220,101128,2590,957,0,0,0,0,0.00,0.00,0.00,-0.01,0.02,1.03,0.31,2.24,1.02,0.07,0.12,-0.43,37.23,0.82,1.29
429,2219,101127,2591,946,0,0,0,0,0.00,0.00,0.00,-0.01,0.03,1.03,0.52,2.30,1.20,0.06,0.12,-0.42,36.61,0.66,1.59
430,2220,101129,2591,933,0,0,0,0,0.00,0.00,0.00,-0.01,0.02,1.03,0.83,2.36,0.98,0.06,0.12,-0.43,37.33,0.73,1.30
431,2220,101125,2591,923,0,0,0,0,0.00,0.00,0.00,0.01,0.02,1.01,0.76,2.21,0.98,0.07,0.12,-0.43,37.17,-0.49,0.89
432,2220,101127,2591,917,0,0,0,0,0.00,0.00,0.00,-0.01,0.03,1.04,0.37,2.07,1.22,0.06,0.12,-0.43,35.96,0.39,1.45
433,2220,101130,2591,923,0,0,0,0,0.00,0.00,0.00,-0.01,0.03,1.02,0.53,2.28,0.99,0.06,0.12,-0.42,35.09,0.72,1.65
434,2221,101128,2591,908,0,0,0,0,0.00,0.00,0.00,-0.01,0.03,1.02,0.70,2.36,1.26,0.06,0.12,-0.42,36.82,0.56,1.42
435,2221,101127,2591,904,0,0,0,0,0.00,0.00,0.00,-0.01,0.03,1.04,0.58,2.07,1.05,0.07,0.12,-0.42,38.36,0.80,1.42
436,2221,101134,2590,902,0,0,0,0,0.00,0.00,0.00,-0.01,0.03,1.03,0.80,2.09,1.05,0.06,0.12,-0.42,37.02,0.66,1.56
437,2221,101133,2590,908,0,0,0,0,0.00,0.00,0.00,-0.02,0.02,1.03,0.58,2.20,1.23,0.07,0.12,-0.42,37.05,0.85,1.30
438,2222,101129,2590,916,0,0,0,0,0.00,0.00,0.00,-0.01,0.03,1.04,0.35,2.33,1.05,0.06,0.12,-0.42,36.78,0.62,1.50
439,2222,101128,2590,928,0,0,0,0,0.00,0.00,0.00,-0.01,0.03,1.03,0.33,2.09,1.04,0.07,0.11,-0.42,39.68,0.66,1.65
440,2222,101131,2590,917,0,0,0,0,0.00,0.00,0.00,-0.01,0.02,1.03,0.55,2.41,1.20,0.06,0.12,-0.41,34.62,0.78,1.37
441,2222,101126,2588,899,0,0,0,0,0.00,0.00,0.00,-0.01,0.02,1.03,0.70,2.06,1.13,0.06,0.12,-0.41,37.43,0.73,1.24
442,2223,101131,2587,891,0,0,0,0,0.00,0.00,0.00,-0.02,0.03,1.02,0.54,2.27,1.23,0.07,0.12,-0.42,38.03,0.88,1.57
443,2222,101131,2587,904,0,0,0,0,0.00,0.00,0.00,-0.01,0.03,1.03,0.55,2.22,1.02,0.06,0.12,-0.43,35.62,0.68,1.45
444,2223,101128,2588,919,0,0,0,0,0.00,0.00,0.00,-0.01,0.02,1.03,0.54,2.11,1.11,0.07,0.12,-0.42,37.09,0.70,1.35
445,2223,101129,2587,920,0,0,0,0,0.00,0.00,0.00,-0.01,0.03,1.04,0.57,2.12,1.09,0.06,0.12,-0.42,36.37,0.50,1.41
446,2223,101126,2588,930,0,0,0,0,0.00,0.00,0.00,-0.01,0.04,1.04,0.54,2.40,1.16,0.07,0.12,-0.42,37.89,0.68,2.05
447,2223,101129,2588,946,0,0,0,0,0.00,0.00,0.00,-0.02,0.02,1.03,0.66,2.24,1.20,0.07,0.12,-0.42,38.55,1.15,1.18
448,2224,101130,2590,956,0,0,0,0,0.00,0.00,0.00,-0.01,0.03,1.03,0.53,2.03,0.99,0.06,0.12,-0.42,36.59,0.45,1.91
449,2223,101133,2591,957,0,0,0,0,0.00,0.00,0.00,-0.01,0.03,1.03,0.46,2.24,1.02,0.07,0.12,-0.42,37.65,0.42,1.82
450,2224,101129,2591,957,0,0,0,0,0.00,0.00,0.00,-0.01,0.02,1.04,0.31,2.10,1.21,0.06,0.12,-0.42,34.54,0.77,1.14
451,2224,101128,2591,955,0,0,0,0,0.00,0.00,0.00,-0.01,0.03,1.03,0.47,2.27,1.11,0.07,0.12,-0.42,37.47,0.62,1.91
452,2225,101133,2592,953,0,0,0,0,0.00,0.00,0.00,-0.02,0.02,1.02,0.61,2.22,0.96,0.06,0.12,-0.42,35.44,0.86,1.23
453,2225,101128,2592,950,0,0,0,0,0.00,0.00,0.00,-0.01,0.02,1.04,0.44,2.15,1.06,0.06,0.12,-0.42,36.37,0.77,1.26
454,2225,101129,2594,950,0,0,0,0,0.00,0.00,0.00,-0.02,0.02,1.03,0.59,2.22,1.03,0.07,0.12,-0.42,38.57,0.93,1.00
455,2225,101125,2594,955,0,0,0,0,0.00,0.00,0.00,-0.02,0.02,1.03,0.36,2.24,1.47,0.07,0.12,-0.42,37.73,0.85,1.30
456,2226,101132,2595,959,0,0,0,0,0.00,0.00,0.00,-0.01,0.03,1.03,0.67,2.34,1.11,0.06,0.12,-0.42,36.74,0.39,1.62
457,2225,101129,2595,960,0,0,0,0,0.00,0.00,0.00,-0.02,0.02,1.03,0.39,2.23,1.20,0.06,0.12,-0.42,35.71,0.95,0.84
458,2225,101125,2595,960,0,0,0,0,0.00,0.00,0.00,-0.01,0.03,1.03,0.69,2.21,1.05,0.06,0.11,-0.42,37.65,0.74,1.61
459,2225,101129,2595,942,0,0,0,0,0.00,0.00,0.00,-0.01,0.03,1.03,0.56,2.16,1.14,0.07,0.12,-0.42,38.59,0.78,1.51
460,2226,101126,2595,936,0,0,0,0,0.00,0.00,0.00,-0.01,0.03,1.03,0.58,2.03,1.28,0.06,0.12,-0.42,37.42,0.83,1.52
461,2225,101129,2595,952,0,0,0,0,0.00,0.00,0.00,-0.01,0.02,1.03,0.65,2.21,1.13,0.07,0.12,-0.42,37.71,0.83,1.25
462,2226,101130,2595,955,0,0,0,0,0.00,0.00,0.00,-0.02,0.03,1.03,0.46,2.15,1.13,0.06,0.12,-0.42,36.90,0.91,1.40
463,2226,101131,2595,953,0,0,0,0,0.00,0.00,0.00,-0.01,0.02,1.03,0.44,2.34,1.11,0.07,0.11,-0.42,38.52,0.64,1.33
464,2226,101126,2597,950,0,0,0,0,0.00,0.00,0.00,-0.01,0.02,1.03,0.37,2.22,1.16,0.07,0.11,-0.43,38.97,0.53,1.31
465,2226,101130,2597,947,0,0,0,0,0.00,0.00,0.00,-0.01,0.03,1.03,0.51,2.21,1.06,0.07,0.12,-0.42,38.19,0.64,1.40
466,2226,101132,2597,941,0,0,0,0,0.00,0.00,0.00,-0.01,0.03,1.03,0.48,2.25,1.02,0.06,0.11,-0.42,37.89,0.77,1.45
467,2226,101134,2597,939,0,0,0,0,0.00,0.00,0.00,-0.01,0.02,1.03,0.73,2.39,1.26,0.07,0.12,-0.43,38.30,0.61,1.39
468,2227,101132,2597,932,0,0,0,0,0.00,0.00,0.00,-0.01,0.02,1.03,0.58,2.28,1.15,0.06,0.12,-0.42,36.29,0.75,1.25
469,2226,101130,2597,941,0,0,0,0,0.00,0.00,0.00,-0.01,0.03,1.03,0.38,2.19,0.92,0.06,0.12,-0.42,37.04,0.75,1.42
470,2227,101128,2597,922,0,0,0,0,0.00,0.00,0.00,-0.01,0.02,1.04,0.64,2.33,1.20,0.07,0.12,-0.42,38.08,0.71,1.27
471,2226,101126,2595,899,0,0,0,0,0.00,0.00,0.00,-0.01,0.03,1.03,0.36,2.15,1.21,0.07,0.12,-0.43,38.52,0.67,1.57
472,2227,101127,2592,892,0,0,0,0,0.00,0.00,0.00,-0.02,0.02,1.03,0.61,2.15,1.20,0.07,0.12,-0.42,37.89,0.88,1.38
473,2227,101129,2594,933,0,0,0,0,0.00,0.00,0.00,-0.01,0.03,1.02,0.70,2.22,1.10,0.07,0.11,-0.42,39.49,0.63,1.93
474,2228,101128,2594,938,0,0,0,0,0.00,0.00,0.00,-0.02,0.01,1.04,0.39,2.16,1.19,0.07,0.12,-0.42,38.15,1.08,0.61
475,2228,101130,2594,923,0,0,0,0,0.00,0.00,0.00,-0.01,0.03,1.04,0.59,2.14,1.10,0.06,0.11,-0.42,37.15,0.60,1.39
476,2228,101131,2592,908,0,0,0,0,0.00,0.00,0.00,-0.02,0.02,1.04,0.72,2.12,1.15,0.07,0.12,-0.42,37.66,0.83,0.93
477,2228,101129,2592,933,0,0,0,0,0.00,0.00,0.00,-0.01,0.03,1.03,0.40,2.40,0.99,0.06,0.12,-0.42,36.00,0.71,1.49
478,2229,101133,2592,947,0,0,0,0,0.00,0.00,0.00,-0.01,0.02,1.03,0.41,2.32,1.12,0.07,0.12,-0.42,37.88,0.82,1.23
479,2228,101126,2594,955,0,0,0,0,0.00,0.00,0.00,-0.01,0.02,1.03,0.60,2.20,1.12,0.06,0.12,-0.42,35.93,0.81,1.32
480,2229,101132,2594,955,0,0,0,0,0.00,0.00,0.00,-0.00,0.02,1.04,0.55,2.13,1.09,0.07,0.12,-0.42,39.37,0.17,1.33
481,2228,101129,2595,952,0,0,0,0,0.00,0.00,0.00,-0.02,0.02,1.03,0.52,2.27,0.96,0.06,0.12,-0.43,36.35,0.94,1.05
482,2229,101129,2595,938,0,0,0,0,0.00,0.00,0.00,-0.01,0.02,1.04,0.39,2.47,1.21,0.06,0.12,-0.42,36.65,0.75,1.29
483,2229,101126,2595,942,0,0,0,0,0.00,0.00,0.00,-0.02,0.02,1.03,0.71,2.32,1.09,0.06,0.12,-0.43,35.89,0.87,1.29
484,2229,101128,2594,946,0,0,0,0,0.00,0.00,0.00,-0.01,0.03,1.04,0.70,2.29,1.20,0.06,0.12,-0.42,36.00,0.76,1.38
485,2229,101129,2594,933,0,0,0,0,0.00,0.00,0.00,-0.01,0.02,1.02,0.52,2.09,0.96,0.07,0.11,-0.43,39.12,0.75,1.28
486,2230,101128,2594,939,0,0,0,0,0.00,0.00,0.00,-0.01,0.03,1.03,0.46,2.20,1.09,0.06,0.11,-0.42,37.31,0.78,1.55
487,2229,101129,2594,938,0,0,0,0,0.00,0.00,0.00,-0.01,0.02,1.03,0.70,2.19,1.11,0.06,0.12,-0.42,35.69,0.78,1.22
488,2230,101130,2595,935,0,0,0,0,0.00,0.00,0.00,-0.01,0.03,1.03,0.52,2.28,0.99,0.06,0.12,-0.43,36.76,0.62,1.47
489,2230,101131,2597,926,0,0,0,0,0.00,0.00,0.00,-0.01,0.03,1.03,0.47,2.20,1.16,0.06,0.12,-0.42,37.44,0.69,1.42
490,2231,101129,2595,926,0,0,0,0,0.00,0.00,0.00,-0.01,0.03,1.03,0.81,2.29,1.14,0.06,0.11,-0.42,35.57,0.70,1.52
491,2230,101135,2595,919,0,0,0,0,0.00,0.00,0.00,-0.01,0.03,1.03,0.43,2.21,1.20,0.06,0.11,-0.43,35.20,0.73,1.47
492,2231,101126,2595,923,0,0,0,0,0.00,0.00,0.00,-0.02,0.03,1.03,0.51,2.41,1.29,0.06,0.12,-0.42,35.26,0.86,1.43
493,2231,101131,2595,936,0,0,0,0,0.00,0.00,0.00,-0.01,0.02,1.04,0.58,2.20,0.96,0.06,0.12,-0.43,34.54,0.72,1.26
494,2231,101129,2597,939,0,0,0,0,0.00,0.00,0.00,-0.02,0.02,1.04,0.77,2.21,0.96,0.06,0.12,-0.42,35.09,0.89,1.30
495,2231,101134,2597,946,0,0,0,0,0.00,0.00,0.00,-0.01,0.02,1.03,0.58,2.21,1.14,0.06,0.12,-0.43,37.50,0.77,1.24
496,2232,101133,2595,950,0,0,0,0,0.00,0.00,0.00,-0.02,0.02,1.08,0.61,2.17,1.17,0.06,0.12,-0.42,36.51,1.20,0.87
497,2231,101132,2597,939,0,0,0,0,0.00,0.00,0.00,-0.01,0.02,1.05,0.69,2.30,1.00,0.06,0.11,-0.43,38.19,0.68,1.35
498,2231,101132,2597,935,0,0,0,0,0.00,0.00,0.00,-0.01,0.02,1.03,0.53,2.06,1.08,0.06,0.12,-0.42,34.09,0.70,1.32
499,2231,101129,2595,901,0,0,0,0,0.00,0.00,0.00,-0.01,0.03,1.03,0.68,2.24,1.23,0.07,0.11,-0.42,40.43,0.58,1.45
500,2232,101131,2595,914,0,0,0,0,0.00,0.00,0.00,-0.01,0.02,1.03,0.62,2.33,1.13,0.06,0.11,-0.43,37.23,0.66,1.31
501,2231,101128,2594,908,0,0,0,0,0.00,0.00,0.00,-0.02,0.03,1.04,0.43,2.26,1.23,0.06,0.12,-0.43,37.07,0.83,1.47
502,2232,101134,2594,910,0,0,0,0,0.00,0.00,0.00,-0.01,0.03,1.04,0.35,2.23,1.20,0.06,0.11,-0.42,36.63,0.80,1.57
503,2232,101128,2594,917,0,0,0,0,0.00,0.00,0.00,-0.01,0.02,1.03,0.59,2.24,1.34,0.06,0.11,-0.43,37.38,0.68,1.27
504,2232,101129,2594,920,0,0,0,0,0.00,0.00,0.00,-0.01,0.03,1.03,0.43,2.15,1.18,0.06,0.12,-0.42,36.87,0.72,1.53
505,2232,101130,2595,930,0,0,0,0,0.00,0.00,0.00,-0.01,0.03,1.03,0.38,2.20,1.25,0.06,0.12,-0.43,35.53,0.79,1.55
506,2233,101133,2594,941,0,0,0,0,0.00,0.00,0.00,-0.01,0.03,1.03,0.48,2.08,1.05,0.06,0.12,-0.42,33.79,0.71,1.39
507,2232,101133,2595,938,0,0,0,0,0.00,0.00,0.00,-0.01,0.03,1.03,0.61,2.03,1.19,0.06,0.12,-0.42,35.36,0.65,1.51
508,2233,101130,2595,944,0,0,0,0,0.00,0.00,0.00,-0.02,0.02,1.04,0.48,2.19,1.09,0.06,0.12,-0.42,35.39,0.89,1.21
509,2233,101125,2597,938,0,0,0,0,0.00,0.00,0.00,-0.01,0.03,1.03,0.40,2.19,1.10,0.06,0.12,-0.42,37.46,0.62,1.48
510,2234,101133,2597,932,0,0,0,0,0.00,0.00,0.00,-0.02,0.03,1.03,0.54,2.27,1.08,0.06,0.12,-0.42,36.38,0.92,1.41
511,2233,101133,2597,919,0,0,0,0,0.00,0.00,0.00,-0.01,0.03,1.03,0.48,2.17,1.23,0.06,0.11,-0.42,36.47,0.75,1.41
512,2234,101127,2595,897,0,0,0,0,0.00,0.00,0.00,-0.01,0.03,1.02,0.41,2.19,1.13,0.06,0.11,-0.43,36.48,0.74,1.43
513,2234,101131,2594,902,0,0,0,0,0.00,0.00,0.00,-0.01,0.03,1.02,0.55,2.21,1.15,0.06,0.11,-0.42,36.08,0.60,1.47
514,2234,101129,2594,910,0,0,0,0,0.00,0.00,0.00,-0.01,0.03,1.04,0.43,2.33,0.75,0.06,0.12,-0.42,33.99,0.64,1.55
515,2234,101133,2592,897,0,0,0,0,0.00,0.00,0.00,-0.01,0.03,1.03,0.42,2.25,1.30,0.06,0.12,-0.42,35.79,0.71,1.46
516,2235,101132,2591,894,0,0,0,0,0.00,0.00,0.00,-0.01,0.03,1.03,0.55,2.04,1.23,0.06,0.11,-0.43,34.61,0.62,1.48
517,2234,101127,2591,889,0,0,0,0,0.00,0.00,0.00,-0.01,0.03,1.03,0.52,2.17,1.21,0.06,0.11,-0.43,35.06,0.74,1.44
518,2235,101128,2590,889,0,0,0,0,0.00,0.00,0.00,-0.01,0.03,1.03,0.61,2.22,1.10,0.05,0.12,-0.42,33.02,0.58,1.50
519,2235,101129,2588,888,0,0,0,0,0.00,0.00,0.00,-0.01,0.03,1.03,0.54,2.24,0.96,0.06,0.12,-0.43,33.59,0.69,1.50
520,2236,101128,2587,891,0,0,0,0,0.00,0.00,0.00,-0.01,0.03,1.04,0.52,2.24,0.92,0.06,0.11,-0.42,37.06,0.79,1.46
521,2235,101131,2587,916,0,0,0,0,0.00,0.00,0.00,-0.01,0.02,1.04,0.63,2.33,1.29,0.05,0.11,-0.43,34.13,0.73,1.35
522,2236,101130,2587,920,0,0,0,0,0.00,0.00,0.00,-0.01,0.03,1.03,0.49,2.20,1.08,0.05,0.11,-0.42,34.23,0.66,1.51
523,2236,101131,2588,926,0,0,0,0,0.00,0.00,0.00,-0.01,0.02,1.03,0.46,2.35,1.08,0.06,0.12,-0.42,36.35,0.80,1.30
524,2236,101129,2588,932,0,0,0,0,0.00,0.00,0.00,-0.01,0.03,1.03,0.40,2.17,1.08,0.06,0.12,-0.42,35.23,0.80,1.46
525,2237,101132,2590,930,0,0,0,0,0.00,0.00,0.00,-0.02,0.02,1.03,0.47,2.28,1.01,0.06,0.12,-0.42,37.32,0.88,1.29
526,2237,101129,2588,935,0,0,0,0,0.00,0.00,0.00,-0.01,0.02,1.04,0.69,2.29,1.32,0.06,0.12,-0.43,35.59,0.78,1.28
527,2237,101128,2590,939,0,0,0,0,0.00,0.00,0.00,-0.01,0.02,1.03,0.58,2.12,1.11,0.05,0.12,-0.43,33.48,0.82,1.28
528,2237,101133,2590,939,0,0,0,0,0.00,0.00,0.00,-0.01,0.03,1.03,0.44,2.25,1.16,0.06,0.11,-0.43,35.06,0.68,1.57
529,2237,101134,2591,928,0,0,0,0,0.00,0.00,0.00,-0.01,0.03,1.03,0.75,1.99,1.08,0.06,0.12,-0.43,34.08,0.57,1.64
530,2238,101127,2591,942,0,0,0,0,0.00,0.00,0.00,-0.01,0.02,1.03,0.56,2.30,1.25,0.06,0.11,-0.43,36.23,0.70,1.38
531,2238,101137,2591,946,0,0,0,0,0.00,0.00,0.00,-0.01,0.03,1.03,0.67,2.13,1.03,0.06,0.12,-0.43,35.50,0.75,1.40
532,2238,101127,2591,939,0,0,0,0,0.00,0.00,0.00,-0.01,0.02,1.03,0.65,2.18,1.21,0.07,0.12,-0.42,37.65,0.41,1.30
533,2238,101131,2591,942,0,0,0,0,0.00,0.00,0.00,-0.01,0.02,1.03,0.61,2.27,1.14,0.06,0.12,-0.42,35.85,0.75,1.37
534,2239,101131,2592,941,0,0,0,0,0.00,0.00,0.00,-0.02,0.03,1.03,0.62,2.11,1.29,0.06,0.12,-0.42,35.33,0.87,1.43
535,2238,101131,2591,933,0,0,0,0,0.00,0.00,0.00,-0.01,0.02,1.04,0.54,2.35,0.93,0.06,0.12,-0.43,36.05,0.69,1.35
536,2239,101129,2591,938,0,0,0,0,0.00,0.00,0.00,-0.01,0.03,1.03,0.82,2.47,1.09,0.06,0.12,-0.43,34.93,0.59,1.49
537,2239,101129,2592,938,0,0,0,0,0.00,0.00,0.00,-0.01,0.03,1.02,0.57,2.14,1.05,0.06,0.12,-0.42,35.77,0.34,1.50
